{"type": "FeatureCollection", "features": [{"type": "Feature", "geometry": {"type": "Point", "coordinates": [142.95691599999998, -37.231524]}, "properties": {"_id": "5eb7cab9380e65004468f3fe", "name": "Ararat Seasonal Farmers' Market", "address": "Lakeside Gardens", "suburb": "Ararat", "postcode": 3377, "state": "VIC", "business_category": "Fresh Food Market", "lga": "Ararat (RC)", "region": "Grampians Region", "lon": 142.95691599999998, "lat": -37.231524, "request": {"type": "GET", "url": "https://gfood-api.azurewebsites.net/markets/5eb7cab9380e65004468f3fe"}}}, {"type": "Feature", "geometry": {"type": "Point", "coordinates": [147.561112, -37.670456]}, "properties": {"_id": "5eb7cabc380e65004468f3ff", "name": "Bairnsdale Farmers Market", "address": "Secondary College Oval", "suburb": "Bairnsdale", "postcode": 3875, "state": "VIC", "business_category": "Fresh Food Market", "lga": "East Gippsland", "region": "Gippsland", "lon": 147.561112, "lat": -37.670456, "request": {"type": "GET", "url": "https://gfood-api.azurewebsites.net/markets/5eb7cabc380e65004468f3ff"}}}, {"type": "Feature", "geometry": {"type": "Point", "coordinates": [143.82561, -37.530285]}, "properties": {"_id": "5eb7cabc380e65004468f400", "name": "Ballarat Lakeside Farmers' Market", "address": "Wendouree Parade", "suburb": "Wendouree", "postcode": 3355, "state": "VIC", "business_category": "Fresh Food Market", "lga": "Ballarat (C)", "region": "Grampians Region", "lon": 143.82561, "lat": -37.530285, "request": {"type": "GET", "url": "https://gfood-api.azurewebsites.net/markets/5eb7cabc380e65004468f400"}}}, {"type": "Feature", "geometry": {"type": "Point", "coordinates": [144.285267, -36.764269]}, "properties": {"_id": "5eb7cabd380e65004468f401", "name": "Bendigo Farmers' Market", "address": "Bendigo Showgrounds", "suburb": "Bendigo", "postcode": 3550, "state": "VIC", "business_category": "Fresh Food Market", "lga": "Greater Bendigo (C)", "region": "Loddon-Mallee Region", "lon": 144.285267, "lat": -36.764269, "request": {"type": "GET", "url": "https://gfood-api.azurewebsites.net/markets/5eb7cabd380e65004468f401"}}}, {"type": "Feature", "geometry": {"type": "Point", "coordinates": [144.796693, -37.743361]}, "properties": {"_id": "5eb7cabd380e65004468f402", "name": "Big Sams St Albans Market", "address": "3 St Albans Road", "suburb": "St Albans", "postcode": 3021, "state": "VIC", "business_category": "Fresh Food Market", "lga": "Brimbank (C)", "region": "North and West Metropolitan Region", "lon": 144.796693, "lat": -37.743361, "request": {"type": "GET", "url": "https://gfood-api.azurewebsites.net/markets/5eb7cabd380e65004468f402"}}}, {"type": "Feature", "geometry": {"type": "Point", "coordinates": [145.04941499999998, -37.829752]}, "properties": {"_id": "5eb7cabe380e65004468f403", "name": "Boroondara Farmers' Market", "address": "Patterson Reserve", "suburb": "Hawthorn East", "postcode": 3123, "state": "VIC", "business_category": "Fresh Food Market", "lga": "Boroondara (C)", "region": "Eastern Metropolitan Region", "lon": 145.04941499999998, "lat": -37.829752, "request": {"type": "GET", "url": "https://gfood-api.azurewebsites.net/markets/5eb7cabe380e65004468f403"}}}, {"type": "Feature", "geometry": {"type": "Point", "coordinates": [145.005702, -37.742470000000004]}, "properties": {"_id": "5eb7cabe380e65004468f404", "name": "Bundoora Park Farmers' Market", "address": "Bundoora Park", "suburb": "Preston", "postcode": 3072, "state": "VIC", "business_category": "Fresh Food Market", "lga": "Darebin (C)", "region": "North and West Metropolitan Region", "lon": 145.005702, "lat": -37.742470000000004, "request": {"type": "GET", "url": "https://gfood-api.azurewebsites.net/markets/5eb7cabe380e65004468f404"}}}, {"type": "Feature", "geometry": {"type": "Point", "coordinates": [143.88341599999998, -37.653945]}, "properties": {"_id": "5eb7cabf380e65004468f405", "name": "Buninyong Farmers Market", "address": "Buninyong Town Hall (May to Dec)", "suburb": "Buninyong", "postcode": 3357, "state": "VIC", "business_category": "Fresh Food Market", "lga": "Ballarat (C)", "region": "Grampians Region", "lon": 143.88341599999998, "lat": -37.653945, "request": {"type": "GET", "url": "https://gfood-api.azurewebsites.net/markets/5eb7cabf380e65004468f405"}}}, {"type": "Feature", "geometry": {"type": "Point", "coordinates": [145.06819099999998, -37.840866999999996]}, "properties": {"_id": "5eb7cabf380e65004468f406", "name": "Camberwell Fresh Food Market", "address": "Camberwell Junction", "suburb": "Camberwell", "postcode": 3124, "state": "VIC", "business_category": "Fresh Food Market", "lga": "Boroondara (C)", "region": "Eastern Metropolitan Region", "lon": 145.06819099999998, "lat": -37.840866999999996, "request": {"type": "GET", "url": "https://gfood-api.azurewebsites.net/markets/5eb7cabf380e65004468f406"}}}, {"type": "Feature", "geometry": {"type": "Point", "coordinates": [145.472514, -38.04658]}, "properties": {"_id": "5eb7cac0380e65004468f407", "name": "Cardinia Ranges Farmers Market", "address": "Pakenham Racecourse", "suburb": "Pakenham", "postcode": 3810, "state": "VIC", "business_category": "Fresh Food Market", "lga": "Cardinia (S)", "region": "Southern Metropolitan Region", "lon": 145.472514, "lat": -38.04658, "request": {"type": "GET", "url": "https://gfood-api.azurewebsites.net/markets/5eb7cac0380e65004468f407"}}}, {"type": "Feature", "geometry": {"type": "Point", "coordinates": [145.34948799999998, -38.025017999999996]}, "properties": {"_id": "5eb7cac0380e65004468f408", "name": "Casey Farmers' Market", "address": "Old Cheese Factory", "suburb": "Berwick", "postcode": 3806, "state": "VIC", "business_category": "Fresh Food Market", "lga": "Casey (C)", "region": "Southern Metropolitan Region", "lon": 145.34948799999998, "lat": -38.025017999999996, "request": {"type": "GET", "url": "https://gfood-api.azurewebsites.net/markets/5eb7cac0380e65004468f408"}}}, {"type": "Feature", "geometry": {"type": "Point", "coordinates": [144.34652, -38.157038]}, "properties": {"_id": "5eb7cac2380e65004468f409", "name": "Central Geelong Farmers' Market", "address": "Little Malop Street", "suburb": "Geelong", "postcode": 3220, "state": "VIC", "business_category": "Fresh Food Market", "lga": "Greater Geelong (C)", "region": "Barwon South Western Region", "lon": 144.34652, "lat": -38.157038, "request": {"type": "GET", "url": "https://gfood-api.azurewebsites.net/markets/5eb7cac2380e65004468f409"}}}, {"type": "Feature", "geometry": {"type": "Point", "coordinates": [144.6014151, -36.18096611]}, "properties": {"_id": "5eb7cac3380e65004468f40a", "name": "Central Murray Farmers Market", "address": "Altona Reserve", "suburb": "Echuca", "postcode": 3564, "state": "VIC", "business_category": "Fresh Food Market", "lga": "Campaspe (S)", "region": "Loddon-Mallee Region", "lon": 144.6014151, "lat": -36.18096611, "request": {"type": "GET", "url": "https://gfood-api.azurewebsites.net/markets/5eb7cac3380e65004468f40a"}}}, {"type": "Feature", "geometry": {"type": "Point", "coordinates": [145.379683, -38.528213]}, "properties": {"_id": "5eb7cac3380e65004468f40b", "name": "Churchill Island Farmers' Market", "address": "Visitor Centre", "suburb": "Churchill Island", "postcode": 3925, "state": "VIC", "business_category": "Fresh Food Market", "lga": "Bass Coast (S)", "region": "Gippsland Region", "lon": 145.379683, "lat": -38.528213, "request": {"type": "GET", "url": "https://gfood-api.azurewebsites.net/markets/5eb7cac3380e65004468f40b"}}}, {"type": "Feature", "geometry": {"type": "Point", "coordinates": [145.038147, -37.951394]}, "properties": {"_id": "5eb7cac4380e65004468f40c", "name": "City of Kingston Farmers' Market", "address": "Sir William Fry Reserve", "suburb": "Highett", "postcode": 3190, "state": "VIC", "business_category": "Fresh Food Market", "lga": "Kingston (C); Bayside (C)", "region": "Southern Metropolitan Region", "lon": 145.038147, "lat": -37.951394, "request": {"type": "GET", "url": "https://gfood-api.azurewebsites.net/markets/5eb7cac4380e65004468f40c"}}}, {"type": "Feature", "geometry": {"type": "Point", "coordinates": [144.998203, -37.803515000000004]}, "properties": {"_id": "5eb7cac4380e65004468f40d", "name": "Collingwood Farmers' Market", "address": "Collingwood Children's Farm", "suburb": "Abbotsford", "postcode": 3067, "state": "VIC", "business_category": "Fresh Food Market", "lga": "Yarra (C)", "region": "North and West Metropolitan Region", "lon": 144.998203, "lat": -37.803515000000004, "request": {"type": "GET", "url": "https://gfood-api.azurewebsites.net/markets/5eb7cac4380e65004468f40d"}}}, {"type": "Feature", "geometry": {"type": "Point", "coordinates": [145.208504, -38.016114]}, "properties": {"_id": "5eb7cac5380e65004468f40e", "name": "Dandenong Market", "address": "Cleeland Street", "suburb": "Dandenong", "postcode": 3175, "state": "VIC", "business_category": "Fresh Food Market", "lga": "Greater Dandenong (C)", "region": "Southern Metropolitan Region", "lon": 145.208504, "lat": -38.016114, "request": {"type": "GET", "url": "https://gfood-api.azurewebsites.net/markets/5eb7cac5380e65004468f40e"}}}, {"type": "Feature", "geometry": {"type": "Point", "coordinates": [144.144216, -37.351704]}, "properties": {"_id": "5eb7cac5380e65004468f40f", "name": "Daylesford Farmers' Market", "address": "Daylesford Primary School", "suburb": "Daylesford", "postcode": 3460, "state": "VIC", "business_category": "Fresh Food Market", "lga": "Hepburn (S)", "region": "Grampians Region", "lon": 144.144216, "lat": -37.351704, "request": {"type": "GET", "url": "https://gfood-api.azurewebsites.net/markets/5eb7cac5380e65004468f40f"}}}, {"type": "Feature", "geometry": {"type": "Point", "coordinates": [147.561112, -37.670456]}, "properties": {"_id": "5eb7cac6380e65004468f410", "name": "East Gippsland Famers' Market", "address": "Bairnsdale Secondary College Oval", "suburb": "Bairnsdale", "postcode": 3875, "state": "VIC", "business_category": "Fresh Food Market", "lga": "East Gippsland (S)", "region": "Gippsland Region", "lon": 147.561112, "lat": -37.670456, "request": {"type": "GET", "url": "https://gfood-api.azurewebsites.net/markets/5eb7cac6380e65004468f410"}}}, {"type": "Feature", "geometry": {"type": "Point", "coordinates": [144.95086, -37.846534000000005]}, "properties": {"_id": "5eb7cac6380e65004468f411", "name": "Gasworks Farmer's Market", "address": "Gasworks Art Park", "suburb": "Albert Park", "postcode": 3206, "state": "VIC", "business_category": "Fresh Food Market", "lga": "Port Phillip (C)", "region": "Southern Metropolitan Region", "lon": 144.95086, "lat": -37.846534000000005, "request": {"type": "GET", "url": "https://gfood-api.azurewebsites.net/markets/5eb7cac6380e65004468f411"}}}, {"type": "Feature", "geometry": {"type": "Point", "coordinates": [144.513018, -37.501619]}, "properties": {"_id": "5eb7cac7380e65004468f412", "name": "Gisborne Farm and Produce Market", "address": "Hamilton Street", "suburb": "Gisborne", "postcode": 3437, "state": "VIC", "business_category": "Fresh Food Market", "lga": "Macedon Ranges (S); Melton (S)", "region": "Loddon-Mallee Region", "lon": 144.513018, "lat": -37.501619, "request": {"type": "GET", "url": "https://gfood-api.azurewebsites.net/markets/5eb7cac7380e65004468f412"}}}, {"type": "Feature", "geometry": {"type": "Point", "coordinates": [145.00178799999998, -37.823303]}, "properties": {"_id": "5eb7cac7380e65004468f413", "name": "Gleadall Street Market", "address": "Gleadall Street", "suburb": "Richmond", "postcode": 3121, "state": "VIC", "business_category": "Fresh Food Market", "lga": "Yarra (C)", "region": "North and West Metropolitan Region", "lon": 145.00178799999998, "lat": -37.823303, "request": {"type": "GET", "url": "https://gfood-api.azurewebsites.net/markets/5eb7cac7380e65004468f413"}}}, {"type": "Feature", "geometry": {"type": "Point", "coordinates": [145.248209, -37.819594]}, "properties": {"_id": "5eb7cac8380e65004468f414", "name": "Heathmont Farmers' Market", "address": "Great Ryrie Primary School", "suburb": "Heathmont", "postcode": 3135, "state": "VIC", "business_category": "Fresh Food Market", "lga": "Maroondah (C)", "region": "Eastern Metropolitan Region", "lon": 145.248209, "lat": -37.819594, "request": {"type": "GET", "url": "https://gfood-api.azurewebsites.net/markets/5eb7cac8380e65004468f414"}}}, {"type": "Feature", "geometry": {"type": "Point", "coordinates": [144.544716, -37.171788]}, "properties": {"_id": "5eb7cac8380e65004468f415", "name": "Kyneton Farmers Market", "address": "St Pauls Park", "suburb": "Kyneton", "postcode": 3444, "state": "VIC", "business_category": "Fresh Food Market", "lga": "Macedon Ranges (S)", "region": "Loddon-Mallee Region", "lon": 144.544716, "lat": -37.171788, "request": {"type": "GET", "url": "https://gfood-api.azurewebsites.net/markets/5eb7cac8380e65004468f415"}}}, {"type": "Feature", "geometry": {"type": "Point", "coordinates": [143.637617, -35.431026]}, "properties": {"_id": "5eb7cac9380e65004468f416", "name": "Lake Boga Farmers' Market", "address": "Outside Lake Boga Yacht Club", "suburb": "Lake Boga", "postcode": 3584, "state": "VIC", "business_category": "Fresh Food Market", "lga": "Swan Hill (RC)", "region": "Loddon-Mallee Region", "lon": 143.637617, "lat": -35.431026, "request": {"type": "GET", "url": "https://gfood-api.azurewebsites.net/markets/5eb7cac9380e65004468f416"}}}, {"type": "Feature", "geometry": {"type": "Point", "coordinates": [144.743358, -37.179453]}, "properties": {"_id": "5eb7cacb380e65004468f417", "name": "Lancefield District Farmers' Market", "address": "Centre Plantation", "suburb": "Lancefield", "postcode": 3435, "state": "VIC", "business_category": "Fresh Food Market", "lga": "Macedon Ranges (S)", "region": "Loddon-Mallee Region; Hume Region", "lon": 144.743358, "lat": -37.179453, "request": {"type": "GET", "url": "https://gfood-api.azurewebsites.net/markets/5eb7cacb380e65004468f417"}}}, {"type": "Feature", "geometry": {"type": "Point", "coordinates": [147.83936699999998, -37.881040999999996]}, "properties": {"_id": "5eb7cacb380e65004468f418", "name": "Metung Farmers' Market", "address": "Village Green", "suburb": "Metung", "postcode": 3904, "state": "VIC", "business_category": "Fresh Food Market", "lga": "East Gippsland (S)", "region": "Gippsland Region", "lon": 147.83936699999998, "lat": -37.881040999999996, "request": {"type": "GET", "url": "https://gfood-api.azurewebsites.net/markets/5eb7cacb380e65004468f418"}}}, {"type": "Feature", "geometry": {"type": "Point", "coordinates": [145.04950300000002, -38.230038]}, "properties": {"_id": "5eb7cacc380e65004468f419", "name": "Mornington Farmers' Market", "address": "Peninsula Lifestyle Centre", "suburb": "Mornington", "postcode": 3931, "state": "VIC", "business_category": "Fresh Food Market", "lga": "Mornington Peninsula (S)", "region": "Southern Metropolitan Region", "lon": 145.04950300000002, "lat": -38.230038, "request": {"type": "GET", "url": "https://gfood-api.azurewebsites.net/markets/5eb7cacc380e65004468f419"}}}, {"type": "Feature", "geometry": {"type": "Point", "coordinates": [146.313751, -36.686814]}, "properties": {"_id": "5eb7cacc380e65004468f41a", "name": "Moyhu Farmers' Market", "address": "Cnr Whitfield-Wangaratta & Meadow Creek Roads", "suburb": "Moyhu", "postcode": 3732, "state": "VIC", "business_category": "Fresh Food Market", "lga": "Wangaratta (RC)", "region": "Hume Region", "lon": 146.313751, "lat": -36.686814, "request": {"type": "GET", "url": "https://gfood-api.azurewebsites.net/markets/5eb7cacc380e65004468f41a"}}}, {"type": "Feature", "geometry": {"type": "Point", "coordinates": [145.089719, -37.902805]}, "properties": {"_id": "5eb7cacd380e65004468f41b", "name": "Oakleigh Market", "address": "12-18 Chester Street", "suburb": "Oakleigh", "postcode": 3166, "state": "VIC", "business_category": "Fresh Food Market", "lga": "Monash (C)", "region": "Eastern Metropolitan Region", "lon": 145.089719, "lat": -37.902805, "request": {"type": "GET", "url": "https://gfood-api.azurewebsites.net/markets/5eb7cacd380e65004468f41b"}}}, {"type": "Feature", "geometry": {"type": "Point", "coordinates": [142.11926599999998, -38.270398]}, "properties": {"_id": "5eb7cacd380e65004468f41c", "name": "Port Fairy Farmers Market", "address": "Fiddler's Green", "suburb": "Port Fairy", "postcode": 3284, "state": "VIC", "business_category": "Fresh Food Market", "lga": "Moyne (S)", "region": "Barwon South Western Region", "lon": 142.11926599999998, "lat": -38.270398, "request": {"type": "GET", "url": "https://gfood-api.azurewebsites.net/markets/5eb7cacd380e65004468f41c"}}}, {"type": "Feature", "geometry": {"type": "Point", "coordinates": [144.991264, -37.840678999999994]}, "properties": {"_id": "5eb7cace380e65004468f41d", "name": "Prahran Market", "address": "163 - 185 Commercial Road", "suburb": "South Yarra", "postcode": 3141, "state": "VIC", "business_category": "Fresh Food Market", "lga": "Stonnington (C); Melbourne (C)", "region": "Southern Metropolitan Region", "lon": 144.991264, "lat": -37.840678999999994, "request": {"type": "GET", "url": "https://gfood-api.azurewebsites.net/markets/5eb7cace380e65004468f41d"}}}, {"type": "Feature", "geometry": {"type": "Point", "coordinates": [146.36041200000003, -39.140761]}, "properties": {"_id": "5eb7cace380e65004468f41e", "name": "Prom Country Farmers' Market", "address": "Foster War Memorial Arts Centre", "suburb": "Foster", "postcode": 3960, "state": "VIC", "business_category": "Fresh Food Market", "lga": "South Gippsland (S)", "region": "Gippsland Region", "lon": 146.36041200000003, "lat": -39.140761, "request": {"type": "GET", "url": "https://gfood-api.azurewebsites.net/markets/5eb7cace380e65004468f41e"}}}, {"type": "Feature", "geometry": {"type": "Point", "coordinates": [144.998203, -37.803515000000004]}, "properties": {"_id": "5eb7cad0380e65004468f41f", "name": "Slow Food Farmers' Market", "address": "Abbotsford Convent", "suburb": "Abbotsford", "postcode": 3067, "state": "VIC", "business_category": "Fresh Food Market", "lga": "Yarra (C)", "region": "North and West Metropolitan Region", "lon": 144.998203, "lat": -37.803515000000004, "request": {"type": "GET", "url": "https://gfood-api.azurewebsites.net/markets/5eb7cad0380e65004468f41f"}}}, {"type": "Feature", "geometry": {"type": "Point", "coordinates": [145.937973, -38.550379]}, "properties": {"_id": "5eb7cad1380e65004468f420", "name": "South Gippsland Farmers' Market", "address": "Memorial Park", "suburb": "Koonwarra", "postcode": 3954, "state": "VIC", "business_category": "Fresh Food Market", "lga": "South Gippsland (S)", "region": "Gippsland Region", "lon": 145.937973, "lat": -38.550379, "request": {"type": "GET", "url": "https://gfood-api.azurewebsites.net/markets/5eb7cad1380e65004468f420"}}}, {"type": "Feature", "geometry": {"type": "Point", "coordinates": [143.63562199999998, -37.196938]}, "properties": {"_id": "5eb7cad1380e65004468f421", "name": "Talbot Farmers' Market", "address": "Talbot Historic Precinct", "suburb": "Talbot", "postcode": 3371, "state": "VIC", "business_category": "Fresh Food Market", "lga": "Central Goldfields (S)", "region": "Loddon-Mallee Region", "lon": 143.63562199999998, "lat": -37.196938, "request": {"type": "GET", "url": "https://gfood-api.azurewebsites.net/markets/5eb7cad1380e65004468f421"}}}, {"type": "Feature", "geometry": {"type": "Point", "coordinates": [146.062514, -36.669928999999996]}, "properties": {"_id": "5eb7cad2380e65004468f422", "name": "Tatong Farmers Market", "address": "Tatong Tavern Hotel grounds", "suburb": "Tatong", "postcode": 3673, "state": "VIC", "business_category": "Fresh Food Market", "lga": "Benalla (RC)", "region": "Hume Region", "lon": 146.062514, "lat": -36.669928999999996, "request": {"type": "GET", "url": "https://gfood-api.azurewebsites.net/markets/5eb7cad2380e65004468f422"}}}, {"type": "Feature", "geometry": {"type": "Point", "coordinates": [145.142675, -37.758334999999995]}, "properties": {"_id": "5eb7cad2380e65004468f423", "name": "Templestowe Rotary Farmers Produce Market", "address": "Thompsons Road", "suburb": "Templestowe", "postcode": 3106, "state": "VIC", "business_category": "Fresh Food Market", "lga": "Manningham (C)", "region": "Eastern Metropolitan Region", "lon": 145.142675, "lat": -37.758334999999995, "request": {"type": "GET", "url": "https://gfood-api.azurewebsites.net/markets/5eb7cad2380e65004468f423"}}}, {"type": "Feature", "geometry": {"type": "Point", "coordinates": [146.256507, -36.894465000000004]}, "properties": {"_id": "5eb7cad3380e65004468f424", "name": "Tolmie Farmers' Market", "address": "Tolmie Recreation Reserve", "suburb": "Tolmie", "postcode": 3723, "state": "VIC", "business_category": "Fresh Food Market", "lga": "Mansfield (S)", "region": "Hume Region", "lon": 146.256507, "lat": -36.894465000000004, "request": {"type": "GET", "url": "https://gfood-api.azurewebsites.net/markets/5eb7cad3380e65004468f424"}}}, {"type": "Feature", "geometry": {"type": "Point", "coordinates": [146.607101, -38.316869]}, "properties": {"_id": "5eb7cad5380e65004468f425", "name": "Traralgon Farmers' Market", "address": "Kay Street Gardens", "suburb": "Traralgon", "postcode": 3844, "state": "VIC", "business_category": "Fresh Food Market", "lga": "Latrobe (C)", "region": "Gippsland Region", "lon": 146.607101, "lat": -38.316869, "request": {"type": "GET", "url": "https://gfood-api.azurewebsites.net/markets/5eb7cad5380e65004468f425"}}}, {"type": "Feature", "geometry": {"type": "Point", "coordinates": [144.979478, -37.865322]}, "properties": {"_id": "5eb7cad5380e65004468f426", "name": "Veg Out St Kilda Farmers' Market", "address": "Peanut Farm Oval", "suburb": "St Kilda", "postcode": 3182, "state": "VIC", "business_category": "Fresh Food Market", "lga": "Port Phillip (C)", "region": "Southern Metropolitan Region", "lon": 144.979478, "lat": -37.865322, "request": {"type": "GET", "url": "https://gfood-api.azurewebsites.net/markets/5eb7cad5380e65004468f426"}}}, {"type": "Feature", "geometry": {"type": "Point", "coordinates": [145.174489, -37.817797999999996]}, "properties": {"_id": "5eb7cad6380e65004468f427", "name": "Whitehorse Farmers' Market", "address": "Whitehorse Civic Centre", "suburb": "Nunawading", "postcode": 3131, "state": "VIC", "business_category": "Fresh Food Market", "lga": "Whitehorse (C)", "region": "Eastern Metropolitan Region", "lon": 145.174489, "lat": -37.817797999999996, "request": {"type": "GET", "url": "https://gfood-api.azurewebsites.net/markets/5eb7cad6380e65004468f427"}}}, {"type": "Feature", "geometry": {"type": "Point", "coordinates": [144.106892, -38.459435]}, "properties": {"_id": "5eb7cad6380e65004468f428", "name": "Aireys Inlet Farmers' Market", "address": "Aireys Inlet Community Hall", "suburb": "Aireys Inlet", "postcode": 3231, "state": "VIC", "business_category": "Fresh Food Market,Market", "lga": "Surf Coast (S)", "region": "Barwon South Western Region", "lon": 144.106892, "lat": -38.459435, "request": {"type": "GET", "url": "https://gfood-api.azurewebsites.net/markets/5eb7cad6380e65004468f428"}}}, {"type": "Feature", "geometry": {"type": "Point", "coordinates": [145.68788899999998, -37.210538]}, "properties": {"_id": "5eb7cad7380e65004468f429", "name": "Alexandra Community Produce & Craft Market", "address": "Alexandra Timber & Tramways Museum", "suburb": "Alexandra", "postcode": 3714, "state": "VIC", "business_category": "Fresh Food Market,Market", "lga": "Murrindindi (S)", "region": "Hume Region", "lon": 145.68788899999998, "lat": -37.210538, "request": {"type": "GET", "url": "https://gfood-api.azurewebsites.net/markets/5eb7cad7380e65004468f429"}}}, {"type": "Feature", "geometry": {"type": "Point", "coordinates": [144.812736, -37.86172]}, "properties": {"_id": "5eb7cad7380e65004468f42a", "name": "Altona Beach Market", "address": "Altona Esplanade", "suburb": "Altona", "postcode": 3018, "state": "VIC", "business_category": "Fresh Food Market,Market", "lga": "Hobsons Bay (C)", "region": "North and West Metropolitan Region", "lon": 144.812736, "lat": -37.86172, "request": {"type": "GET", "url": "https://gfood-api.azurewebsites.net/markets/5eb7cad7380e65004468f42a"}}}, {"type": "Feature", "geometry": {"type": "Point", "coordinates": [143.671777, -38.679417]}, "properties": {"_id": "5eb7cad8380e65004468f42b", "name": "Apollo Bay Market", "address": "Apollo Bay Foreshore", "suburb": "Apollo Bay", "postcode": 3233, "state": "VIC", "business_category": "Fresh Food Market,Market", "lga": "Colac-otway", "region": "Barwon S/W", "lon": 143.671777, "lat": -38.679417, "request": {"type": "GET", "url": "https://gfood-api.azurewebsites.net/markets/5eb7cad8380e65004468f42b"}}}, {"type": "Feature", "geometry": {"type": "Point", "coordinates": [145.466781, -38.483041]}, "properties": {"_id": "5eb7cad8380e65004468f42c", "name": "Bass Community Market", "address": "Bass Community Centre", "suburb": "Bass", "postcode": 3991, "state": "VIC", "business_category": "Fresh Food Market,Market", "lga": "Bass Coast (S)", "region": "Gippsland Region", "lon": 145.466781, "lat": -38.483041, "request": {"type": "GET", "url": "https://gfood-api.azurewebsites.net/markets/5eb7cad8380e65004468f42c"}}}, {"type": "Feature", "geometry": {"type": "Point", "coordinates": [144.285267, -36.764269]}, "properties": {"_id": "5eb7cad9380e65004468f42d", "name": "Bridge Street Market", "address": "1-3 Bridge Street", "suburb": "Bendigo", "postcode": 3550, "state": "VIC", "business_category": "Fresh Food Market,Market", "lga": "Greater Bendigo (C)", "region": "Loddon-Mallee Region", "lon": 144.285267, "lat": -36.764269, "request": {"type": "GET", "url": "https://gfood-api.azurewebsites.net/markets/5eb7cad9380e65004468f42d"}}}, {"type": "Feature", "geometry": {"type": "Point", "coordinates": [144.97728, -37.770012]}, "properties": {"_id": "5eb7cada380e65004468f42e", "name": "Ceres Organic Food & Craft Market", "address": "Ceres Community Environment Park", "suburb": "Brunswick East", "postcode": 3057, "state": "VIC", "business_category": "Fresh Food Market,Market", "lga": "Moreland", "region": "North and West Metropolitan Region", "lon": 144.97728, "lat": -37.770012, "request": {"type": "GET", "url": "https://gfood-api.azurewebsites.net/markets/5eb7cada380e65004468f42e"}}}, {"type": "Feature", "geometry": {"type": "Point", "coordinates": [145.86733700000002, -38.096289]}, "properties": {"_id": "5eb7cada380e65004468f42f", "name": "Drouin Produce and Craft Market", "address": "Civic Park", "suburb": "Drouin", "postcode": 3818, "state": "VIC", "business_category": "Fresh Food Market,Market", "lga": "Baw Baw (S)", "region": "Gippsland Region", "lon": 145.86733700000002, "lat": -38.096289, "request": {"type": "GET", "url": "https://gfood-api.azurewebsites.net/markets/5eb7cada380e65004468f42f"}}}, {"type": "Feature", "geometry": {"type": "Point", "coordinates": [144.907953, -37.807101]}, "properties": {"_id": "5eb7cada380e65004468f430", "name": "Footscray Market", "address": "Cnr Hopkins & Leeds Streets", "suburb": "Footscray", "postcode": 3011, "state": "VIC", "business_category": "Fresh Food Market,Market", "lga": "Maribyrnong (C)", "region": "North and West Metropolitan Region", "lon": 144.907953, "lat": -37.807101, "request": {"type": "GET", "url": "https://gfood-api.azurewebsites.net/markets/5eb7cada380e65004468f430"}}}, {"type": "Feature", "geometry": {"type": "Point", "coordinates": [144.96576299999998, -36.410185999999996]}, "properties": {"_id": "5eb7cadb380e65004468f431", "name": "Girgarre Farmers' Produce Market", "address": "Girgarre Park", "suburb": "Girgarre", "postcode": 3624, "state": "VIC", "business_category": "Fresh Food Market,Market", "lga": "Greater Shepparton (C); Campaspe (S)", "region": "Loddon-Mallee Region; Hume Region", "lon": 144.96576299999998, "lat": -36.410185999999996, "request": {"type": "GET", "url": "https://gfood-api.azurewebsites.net/markets/5eb7cadb380e65004468f431"}}}, {"type": "Feature", "geometry": {"type": "Point", "coordinates": [144.308232, -37.573710999999996]}, "properties": {"_id": "5eb7cadb380e65004468f432", "name": "Greendale Country Market", "address": "Egans Reserve", "suburb": "Greendale", "postcode": 3341, "state": "Vic", "business_category": "Fresh Food Market,Market", "lga": "Moorabool (S)", "region": "Grampians Region", "lon": 144.308232, "lat": -37.573710999999996, "request": {"type": "GET", "url": "https://gfood-api.azurewebsites.net/markets/5eb7cadb380e65004468f432"}}}, {"type": "Feature", "geometry": {"type": "Point", "coordinates": [143.769445, -35.767974]}, "properties": {"_id": "5eb7cadc380e65004468f433", "name": "Murrabit Country Market", "address": "Goon Avenue", "suburb": "Murrabit", "postcode": 3579, "state": "VIC", "business_category": "Fresh Food Market,Market", "lga": "Gannawarra (S)", "region": "Loddon-Mallee Region", "lon": 143.769445, "lat": -35.767974, "request": {"type": "GET", "url": "https://gfood-api.azurewebsites.net/markets/5eb7cadc380e65004468f433"}}}, {"type": "Feature", "geometry": {"type": "Point", "coordinates": [144.956776, -37.817403000000006]}, "properties": {"_id": "5eb7cadc380e65004468f434", "name": "Queen Victoria Market", "address": "Cnr Elizabeth & Victoria Streets", "suburb": "Melbourne", "postcode": 3000, "state": "VIC", "business_category": "Fresh Food Market,Market", "lga": "Melbourne", "region": "North and West Metropolitan Region", "lon": 144.956776, "lat": -37.817403000000006, "request": {"type": "GET", "url": "https://gfood-api.azurewebsites.net/markets/5eb7cadc380e65004468f434"}}}, {"type": "Feature", "geometry": {"type": "Point", "coordinates": [145.01994, -38.373694]}, "properties": {"_id": "5eb7cadd380e65004468f435", "name": "Red Hill Community Market", "address": "Red Hill Recreation Reserve", "suburb": "Red Hill", "postcode": 3937, "state": "VIC", "business_category": "Fresh Food Market,Market", "lga": "Mornington Peninsula (S)", "region": "Southern Metropolitan Region", "lon": 145.01994, "lat": -38.373694, "request": {"type": "GET", "url": "https://gfood-api.azurewebsites.net/markets/5eb7cadd380e65004468f435"}}}, {"type": "Feature", "geometry": {"type": "Point", "coordinates": [145.257867, -37.035925]}, "properties": {"_id": "5eb7cadd380e65004468f436", "name": "Seymour Produce and Craft Market", "address": "Kings Park", "suburb": "Seymour", "postcode": 3660, "state": "VIC", "business_category": "Fresh Food Market,Market", "lga": "Murrindindi (S); Mitchell (S)", "region": "Hume Region", "lon": 145.257867, "lat": -37.035925, "request": {"type": "GET", "url": "https://gfood-api.azurewebsites.net/markets/5eb7cadd380e65004468f436"}}}, {"type": "Feature", "geometry": {"type": "Point", "coordinates": [144.958176, -37.831693]}, "properties": {"_id": "5eb7cade380e65004468f437", "name": "South Melbourne Market", "address": "322-326 Coventry Street", "suburb": "South Melbourne", "postcode": 3205, "state": "VIC", "business_category": "Fresh Food Market,Market", "lga": "Port Phillip (C); Melbourne (C)", "region": "Southern Metropolitan Region; North and West Metropolitan Region", "lon": 144.958176, "lat": -37.831693, "request": {"type": "GET", "url": "https://gfood-api.azurewebsites.net/markets/5eb7cade380e65004468f437"}}}, {"type": "Feature", "geometry": {"type": "Point", "coordinates": [142.771159, -37.0666]}, "properties": {"_id": "5eb7cade380e65004468f438", "name": "Stawell Fair Dinkum' Farm and Craft Market", "address": "Stawell Showgrounds", "suburb": "Stawell", "postcode": 3380, "state": "VIC", "business_category": "Fresh Food Market,Market", "lga": "Northern Grampians (S)", "region": "Grampians Region", "lon": 142.771159, "lat": -37.0666, "request": {"type": "GET", "url": "https://gfood-api.azurewebsites.net/markets/5eb7cade380e65004468f438"}}}, {"type": "Feature", "geometry": {"type": "Point", "coordinates": [144.144216, -37.351704]}, "properties": {"_id": "5eb7cadf380e65004468f439", "name": "The Spa Country Market", "address": "Victoria Park, Ballan Road", "suburb": "Daylesford", "postcode": 3460, "state": "VIC", "business_category": "Fresh Food Market,Market", "lga": "Hepburn", "region": "Grampians", "lon": 144.144216, "lat": -37.351704, "request": {"type": "GET", "url": "https://gfood-api.azurewebsites.net/markets/5eb7cadf380e65004468f439"}}}, {"type": "Feature", "geometry": {"type": "Point", "coordinates": [144.33471, -37.424116]}, "properties": {"_id": "5eb7cadf380e65004468f43a", "name": "Trentham Market", "address": "Victoria Street", "suburb": "Trentham", "postcode": 3458, "state": "VIC", "business_category": "Fresh Food Market,Market", "lga": "Moorabool (S); Macedon Ranges (S); Hepburn (S)", "region": "Loddon-Mallee Region; Grampians Region", "lon": 144.33471, "lat": -37.424116, "request": {"type": "GET", "url": "https://gfood-api.azurewebsites.net/markets/5eb7cadf380e65004468f43a"}}}, {"type": "Feature", "geometry": {"type": "Point", "coordinates": [145.365993, -37.642852000000005]}, "properties": {"_id": "5eb7cae0380e65004468f43b", "name": "Yarra Valley Farmers' Market", "address": "Yering Station Vineyard", "suburb": "Yarra Glen", "postcode": 3775, "state": "VIC", "business_category": "Fresh Food Market,Market", "lga": "Yarra Ranges (S); Nillumbik (S)", "region": "North and West Metropolitan Region; Eastern Metro", "lon": 145.365993, "lat": -37.642852000000005, "request": {"type": "GET", "url": "https://gfood-api.azurewebsites.net/markets/5eb7cae0380e65004468f43b"}}}, {"type": "Feature", "geometry": {"type": "Point", "coordinates": [144.239102, -37.651463]}, "properties": {"_id": "5eb7cae0380e65004468f43c", "name": "Ballan Community Market", "address": "145 Inglis Street", "suburb": "Ballan", "postcode": 3342, "state": "VIC", "business_category": "Market", "lga": "Moorabool (S)", "region": "Grampians Region", "lon": 144.239102, "lat": -37.651463, "request": {"type": "GET", "url": "https://gfood-api.azurewebsites.net/markets/5eb7cae0380e65004468f43c"}}}, {"type": "Feature", "geometry": {"type": "Point", "coordinates": [143.864505, -37.571940999999995]}, "properties": {"_id": "5eb7cae1380e65004468f43d", "name": "Ballarat Antique Market", "address": "Antique & Collectables Centre", "suburb": "Ballarat", "postcode": 3350, "state": "VIC", "business_category": "Market", "lga": "Ballarat", "region": "Grampians", "lon": 143.864505, "lat": -37.571940999999995, "request": {"type": "GET", "url": "https://gfood-api.azurewebsites.net/markets/5eb7cae1380e65004468f43d"}}}, {"type": "Feature", "geometry": {"type": "Point", "coordinates": [143.864505, -37.571940999999995]}, "properties": {"_id": "5eb7cae1380e65004468f43e", "name": "Ballarat Fine Art Gallery Arts Market", "address": "Ballarat Fine Arts Gallery", "suburb": "Ballarat", "postcode": 3350, "state": "VIC", "business_category": "Market", "lga": "Ballarat", "region": "Grampians", "lon": 143.864505, "lat": -37.571940999999995, "request": {"type": "GET", "url": "https://gfood-api.azurewebsites.net/markets/5eb7cae1380e65004468f43e"}}}, {"type": "Feature", "geometry": {"type": "Point", "coordinates": [143.864505, -37.571940999999995]}, "properties": {"_id": "5eb7cae2380e65004468f43f", "name": "Ballarat Trash & Trivia Market", "address": "Ballarat Showgrounds", "suburb": "Ballarat", "postcode": 3350, "state": "VIC", "business_category": "Market", "lga": "Ballarat", "region": "Grampians", "lon": 143.864505, "lat": -37.571940999999995, "request": {"type": "GET", "url": "https://gfood-api.azurewebsites.net/markets/5eb7cae2380e65004468f43f"}}}, {"type": "Feature", "geometry": {"type": "Point", "coordinates": [145.094502, -38.355230999999996]}, "properties": {"_id": "5eb7cae2380e65004468f440", "name": "Balnarring Racecourse Rotary Craft Market", "address": "Balnarring Racecourse", "suburb": "Balnarring", "postcode": 3926, "state": "VIC", "business_category": "Market", "lga": "Mornington Peninsula", "region": "Southern Metro", "lon": 145.094502, "lat": -38.355230999999996, "request": {"type": "GET", "url": "https://gfood-api.azurewebsites.net/markets/5eb7cae2380e65004468f440"}}}, {"type": "Feature", "geometry": {"type": "Point", "coordinates": [145.08171399999998, -37.793695]}, "properties": {"_id": "5eb7cae3380e65004468f441", "name": "Balwyn North Market", "address": "Koonung Heights Uniting Church Hall", "suburb": "Balwyn North", "postcode": 3104, "state": "VIC", "business_category": "Market", "lga": "Boroondara", "region": "Eastern Metro", "lon": 145.08171399999998, "lat": -37.793695, "request": {"type": "GET", "url": "https://gfood-api.azurewebsites.net/markets/5eb7cae3380e65004468f441"}}}, {"type": "Feature", "geometry": {"type": "Point", "coordinates": [145.63268200000002, -35.945353000000004]}, "properties": {"_id": "5eb7cae3380e65004468f442", "name": "Barooga Lions Market", "address": "Vermont Barooga", "suburb": "Barooga", "postcode": 3644, "state": "VIC", "business_category": "Market", "lga": null, "region": null, "lon": 145.63268200000002, "lat": -35.945353000000004, "request": {"type": "GET", "url": "https://gfood-api.azurewebsites.net/markets/5eb7cae3380e65004468f442"}}}, {"type": "Feature", "geometry": {"type": "Point", "coordinates": [144.40814, -38.263052]}, "properties": {"_id": "5eb7cae4380e65004468f443", "name": "Barwon Heads Market", "address": "Community Hall", "suburb": "Barwon Heads", "postcode": 3227, "state": "VIC", "business_category": "Market", "lga": "Greater Geelong", "region": "Barwon S/W", "lon": 144.40814, "lat": -38.263052, "request": {"type": "GET", "url": "https://gfood-api.azurewebsites.net/markets/5eb7cae4380e65004468f443"}}}, {"type": "Feature", "geometry": {"type": "Point", "coordinates": [145.56397900000002, -38.312647]}, "properties": {"_id": "5eb7cae4380e65004468f444", "name": "Bass Valley Lions Market", "address": "Grantville Transaction Centre", "suburb": "Grantville", "postcode": 3984, "state": "VIC", "business_category": "Market", "lga": "Bass Coast , Cardinia", "region": "Southern Metro, Gippsland", "lon": 145.56397900000002, "lat": -38.312647, "request": {"type": "GET", "url": "https://gfood-api.azurewebsites.net/markets/5eb7cae4380e65004468f444"}}}, {"type": "Feature", "geometry": {"type": "Point", "coordinates": [145.575, -38.207298]}, "properties": {"_id": "5eb7cae5380e65004468f445", "name": "Bayles Country Market", "address": "Fauna Park", "suburb": "Bayles", "postcode": 3981, "state": "VIC", "business_category": "Market", "lga": "Cardinia (S)", "region": "Southern Metropolitan Region", "lon": 145.575, "lat": -38.207298, "request": {"type": "GET", "url": "https://gfood-api.azurewebsites.net/markets/5eb7cae5380e65004468f445"}}}, {"type": "Feature", "geometry": {"type": "Point", "coordinates": [145.270141, -37.845116]}, "properties": {"_id": "5eb7cae5380e65004468f446", "name": "Bayswater Market", "address": "Pine Road Carpark", "suburb": "Bayswater", "postcode": 3153, "state": "VIC", "business_category": "Market", "lga": "Maroondah , Knox", "region": "Eastern Metro", "lon": 145.270141, "lat": -37.845116, "request": {"type": "GET", "url": "https://gfood-api.azurewebsites.net/markets/5eb7cae5380e65004468f446"}}}, {"type": "Feature", "geometry": {"type": "Point", "coordinates": [143.51213, -36.70633]}, "properties": {"_id": "5eb7cae6380e65004468f447", "name": "Bealiba Counrty Market", "address": "Renshaw's Flat", "suburb": "Bealiba", "postcode": 3475, "state": "VIC", "business_category": "Market", "lga": null, "region": null, "lon": 143.51213, "lat": -36.70633, "request": {"type": "GET", "url": "https://gfood-api.azurewebsites.net/markets/5eb7cae6380e65004468f447"}}}, {"type": "Feature", "geometry": {"type": "Point", "coordinates": [144.83574299999998, -37.7778]}, "properties": {"_id": "5eb7cae6380e65004468f448", "name": "Beaufort Market", "address": "Memorial Park", "suburb": "Beaufort", "postcode": 3353, "state": "VIC", "business_category": "Market", "lga": "Pyrenees", "region": "Grampians", "lon": 144.83574299999998, "lat": -37.7778, "request": {"type": "GET", "url": "https://gfood-api.azurewebsites.net/markets/5eb7cae6380e65004468f448"}}}, {"type": "Feature", "geometry": {"type": "Point", "coordinates": [146.725705, -36.361056]}, "properties": {"_id": "5eb7cae7380e65004468f449", "name": "Beechworth Country Craft Market", "address": "Queen Victoria Park", "suburb": "Beechworth", "postcode": 3747, "state": "VIC", "business_category": "Market", "lga": "Indigo", "region": "Hume", "lon": 146.725705, "lat": -36.361056, "request": {"type": "GET", "url": "https://gfood-api.azurewebsites.net/markets/5eb7cae7380e65004468f449"}}}, {"type": "Feature", "geometry": {"type": "Point", "coordinates": [144.34652, -38.157038]}, "properties": {"_id": "5eb7cae7380e65004468f44a", "name": "Belmont Market", "address": "Barwon Valley Activity Centre", "suburb": "Geelong", "postcode": 3220, "state": "VIC", "business_category": "Market", "lga": "Greater Geelong", "region": "Barwon S/W", "lon": 144.34652, "lat": -38.157038, "request": {"type": "GET", "url": "https://gfood-api.azurewebsites.net/markets/5eb7cae7380e65004468f44a"}}}, {"type": "Feature", "geometry": {"type": "Point", "coordinates": [145.97776100000002, -36.554936]}, "properties": {"_id": "5eb7cae8380e65004468f44b", "name": "Benalla Lakeside Quality Craft Market", "address": "Benalla Lake Foreshore", "suburb": "Benalla", "postcode": 3672, "state": "VIC", "business_category": "Market", "lga": "Mansfield (S); Benalla (RC)", "region": "Hume Region", "lon": 145.97776100000002, "lat": -36.554936, "request": {"type": "GET", "url": "https://gfood-api.azurewebsites.net/markets/5eb7cae8380e65004468f44b"}}}, {"type": "Feature", "geometry": {"type": "Point", "coordinates": [143.864505, -37.571940999999995]}, "properties": {"_id": "5eb7cae8380e65004468f44c", "name": "Bendigo Market", "address": "Corner Strickland & Rohs Roads", "suburb": "Bendigo", "postcode": 3350, "state": "VIC", "business_category": "Market", "lga": "Greater Bendigo", "region": "Loddon-Mallee", "lon": 143.864505, "lat": -37.571940999999995, "request": {"type": "GET", "url": "https://gfood-api.azurewebsites.net/markets/5eb7cae8380e65004468f44c"}}}, {"type": "Feature", "geometry": {"type": "Point", "coordinates": [143.864505, -37.571940999999995]}, "properties": {"_id": "5eb7cae9380e65004468f44d", "name": "Bendigo Prince of Wales Showground Market", "address": "Bendigo Showgrounds", "suburb": "Bendigo", "postcode": 3350, "state": "VIC", "business_category": "Market", "lga": "Greater Bendigo", "region": "Loddon-Mallee", "lon": 143.864505, "lat": -37.571940999999995, "request": {"type": "GET", "url": "https://gfood-api.azurewebsites.net/markets/5eb7cae9380e65004468f44d"}}}, {"type": "Feature", "geometry": {"type": "Point", "coordinates": [145.059426, -37.922369]}, "properties": {"_id": "5eb7cae9380e65004468f44e", "name": "Bentleigh Lions Craft Market", "address": "St Johns Church Hall", "suburb": "Bentleigh East", "postcode": 3165, "state": "VIC", "business_category": "Market", "lga": "Glen Eira", "region": "Southern Metro", "lon": 145.059426, "lat": -37.922369, "request": {"type": "GET", "url": "https://gfood-api.azurewebsites.net/markets/5eb7cae9380e65004468f44e"}}}, {"type": "Feature", "geometry": {"type": "Point", "coordinates": [145.036783, -37.916956]}, "properties": {"_id": "5eb7caea380e65004468f44f", "name": "Bentleigh Rotary Sunday Market", "address": "Railway Car Park", "suburb": "Bentleigh", "postcode": 3204, "state": "VIC", "business_category": "Market", "lga": "Kingston , Glen Eira", "region": "Southern Metro", "lon": 145.036783, "lat": -37.916956, "request": {"type": "GET", "url": "https://gfood-api.azurewebsites.net/markets/5eb7caea380e65004468f44f"}}}, {"type": "Feature", "geometry": {"type": "Point", "coordinates": [145.34948799999998, -38.025017999999996]}, "properties": {"_id": "5eb7caea380e65004468f450", "name": "Berwick Akoonah Park Market", "address": "Akoonah Park (showgrounds)", "suburb": "Berwick", "postcode": 3806, "state": "VIC", "business_category": "Market", "lga": "Casey", "region": "Southern Metro", "lon": 145.34948799999998, "lat": -38.025017999999996, "request": {"type": "GET", "url": "https://gfood-api.azurewebsites.net/markets/5eb7caea380e65004468f450"}}}, {"type": "Feature", "geometry": {"type": "Point", "coordinates": [145.34948799999998, -38.025017999999996]}, "properties": {"_id": "5eb7caeb380e65004468f451", "name": "Berwick Craft Market", "address": "Berwick Leisure Centre", "suburb": "Berwick", "postcode": 3806, "state": "VIC", "business_category": "Market", "lga": "Casey", "region": "Southern Metro", "lon": 145.34948799999998, "lat": -38.025017999999996, "request": {"type": "GET", "url": "https://gfood-api.azurewebsites.net/markets/5eb7caeb380e65004468f451"}}}, {"type": "Feature", "geometry": {"type": "Point", "coordinates": [143.740326, -38.346703999999995]}, "properties": {"_id": "5eb7caeb380e65004468f452", "name": "Birregurra Market", "address": "Main street", "suburb": "Birregurra", "postcode": 3242, "state": "VIC", "business_category": "Market", "lga": null, "region": null, "lon": 143.740326, "lat": -38.346703999999995, "request": {"type": "GET", "url": "https://gfood-api.azurewebsites.net/markets/5eb7caeb380e65004468f452"}}}, {"type": "Feature", "geometry": {"type": "Point", "coordinates": [145.155546, -38.339871]}, "properties": {"_id": "5eb7caec380e65004468f453", "name": "Bittern Country Market", "address": "Bittern Railway Station", "suburb": "Bittern", "postcode": 3918, "state": "VIC", "business_category": "Market", "lga": null, "region": null, "lon": 145.155546, "lat": -38.339871, "request": {"type": "GET", "url": "https://gfood-api.azurewebsites.net/markets/5eb7caec380e65004468f453"}}}, {"type": "Feature", "geometry": {"type": "Point", "coordinates": [145.149653, -37.81805]}, "properties": {"_id": "5eb7caec380e65004468f454", "name": "Blackburn Station Art & Craft Market", "address": "South Parade", "suburb": "Blackburn", "postcode": 3130, "state": "VIC", "business_category": "Market", "lga": "Whitehorse", "region": "Eastern Metro", "lon": 145.149653, "lat": -37.81805, "request": {"type": "GET", "url": "https://gfood-api.azurewebsites.net/markets/5eb7caec380e65004468f454"}}}, {"type": "Feature", "geometry": {"type": "Point", "coordinates": [144.900413, -38.42776]}, "properties": {"_id": "5eb7caed380e65004468f455", "name": "Boneo Community Market", "address": "Boneo Recreation Reserve, ", "suburb": "Rosebud", "postcode": 3939, "state": "VIC", "business_category": "Market", "lga": "Mornington Peninsula", "region": "Southern Metro", "lon": 144.900413, "lat": -38.42776, "request": {"type": "GET", "url": "https://gfood-api.azurewebsites.net/markets/5eb7caed380e65004468f455"}}}, {"type": "Feature", "geometry": {"type": "Point", "coordinates": [145.284418, -37.861799]}, "properties": {"_id": "5eb7caef380e65004468f456", "name": "Boronia Sunday Market", "address": "Dorset Square", "suburb": "Boronia", "postcode": 3155, "state": "VIC", "business_category": "Market", "lga": null, "region": null, "lon": 145.284418, "lat": -37.861799, "request": {"type": "GET", "url": "https://gfood-api.azurewebsites.net/markets/5eb7caef380e65004468f456"}}}, {"type": "Feature", "geometry": {"type": "Point", "coordinates": [145.122393, -37.828866]}, "properties": {"_id": "5eb7caef380e65004468f457", "name": "Box Hill Art and Craft Market", "address": "Box Hill Mall", "suburb": "Box Hill", "postcode": 3128, "state": "VIC", "business_category": "Market", "lga": "Whitehorse", "region": "Eastern Metro", "lon": 145.122393, "lat": -37.828866, "request": {"type": "GET", "url": "https://gfood-api.azurewebsites.net/markets/5eb7caef380e65004468f457"}}}, {"type": "Feature", "geometry": {"type": "Point", "coordinates": [146.805175, -37.571707]}, "properties": {"_id": "5eb7caf0380e65004468f458", "name": "Briagolong Art and Craft Market", "address": "Briagolong Priamry School", "suburb": "Briagolong", "postcode": 3860, "state": "VIC", "business_category": "Market", "lga": "Wellington", "region": "Gippsland", "lon": 146.805175, "lat": -37.571707, "request": {"type": "GET", "url": "https://gfood-api.azurewebsites.net/markets/5eb7caf0380e65004468f458"}}}, {"type": "Feature", "geometry": {"type": "Point", "coordinates": [147.063163, -36.962315999999994]}, "properties": {"_id": "5eb7caf0380e65004468f459", "name": "Bright Craft Market", "address": "Bright Shopping Centre", "suburb": "Bright", "postcode": 3741, "state": "VIC", "business_category": "Market", "lga": "Alpine", "region": "Hume", "lon": 147.063163, "lat": -36.962315999999994, "request": {"type": "GET", "url": "https://gfood-api.azurewebsites.net/markets/5eb7caf0380e65004468f459"}}}, {"type": "Feature", "geometry": {"type": "Point", "coordinates": [145.111854, -37.241401]}, "properties": {"_id": "5eb7caf1380e65004468f45a", "name": "Broadford Community and High School Markets", "address": "High Street", "suburb": "Broadford", "postcode": 3658, "state": "VIC", "business_category": "Market", "lga": "Mitchell", "region": "Hume", "lon": 145.111854, "lat": -37.241401, "request": {"type": "GET", "url": "https://gfood-api.azurewebsites.net/markets/5eb7caf1380e65004468f45a"}}}, {"type": "Feature", "geometry": {"type": "Point", "coordinates": [145.111854, -37.241401]}, "properties": {"_id": "5eb7caf1380e65004468f45b", "name": "Broadford High School Market", "address": "Broadford Historical Precinct", "suburb": "Broadford", "postcode": 3658, "state": "VIC", "business_category": "Market", "lga": "Mitchell", "region": "Hume", "lon": 145.111854, "lat": -37.241401, "request": {"type": "GET", "url": "https://gfood-api.azurewebsites.net/markets/5eb7caf1380e65004468f45b"}}}, {"type": "Feature", "geometry": {"type": "Point", "coordinates": [148.06969530000003, -37.01610136]}, "properties": {"_id": "5eb7caf2380e65004468f45c", "name": "Bruthen Village Market", "address": "Bruthen Mechanics Hall", "suburb": "Bruthen", "postcode": 3885, "state": "VIC", "business_category": "Market", "lga": "East Gippsland", "region": "Gippsland", "lon": 148.06969530000003, "lat": -37.01610136, "request": {"type": "GET", "url": "https://gfood-api.azurewebsites.net/markets/5eb7caf2380e65004468f45c"}}}, {"type": "Feature", "geometry": {"type": "Point", "coordinates": [144.81149399999998, -37.591069]}, "properties": {"_id": "5eb7caf2380e65004468f45d", "name": "Bulla Hill Country Market", "address": "Bulla Hill Railway", "suburb": "Bulla", "postcode": 3428, "state": "VIC", "business_category": "Market", "lga": "Hume (C)", "region": "North and West Metropolitan Region", "lon": 144.81149399999998, "lat": -37.591069, "request": {"type": "GET", "url": "https://gfood-api.azurewebsites.net/markets/5eb7caf2380e65004468f45d"}}}, {"type": "Feature", "geometry": {"type": "Point", "coordinates": [145.056223, -37.701346]}, "properties": {"_id": "5eb7caf3380e65004468f45e", "name": "Bundoora Square Craft Market", "address": "Bundoora Square, Plenty Road", "suburb": "Bundoora", "postcode": 3083, "state": "VIC", "business_category": "Market", "lga": "Whittlesea,Darebin,Banyule", "region": "North and West Metropolitan Region", "lon": 145.056223, "lat": -37.701346, "request": {"type": "GET", "url": "https://gfood-api.azurewebsites.net/markets/5eb7caf3380e65004468f45e"}}}, {"type": "Feature", "geometry": {"type": "Point", "coordinates": [143.88341599999998, -37.653945]}, "properties": {"_id": "5eb7caf3380e65004468f45f", "name": "Buninyong Lions Club Craft Market", "address": "Town Hall", "suburb": "Buninyong", "postcode": 3357, "state": "VIC", "business_category": "Market", "lga": "Ballarat", "region": "Grampians", "lon": 143.88341599999998, "lat": -37.653945, "request": {"type": "GET", "url": "https://gfood-api.azurewebsites.net/markets/5eb7caf3380e65004468f45f"}}}, {"type": "Feature", "geometry": {"type": "Point", "coordinates": [145.06819099999998, -37.840866999999996]}, "properties": {"_id": "5eb7caf4380e65004468f460", "name": "Camberwell Sunday Market", "address": "Station Street ", "suburb": "Camberwell", "postcode": 3124, "state": "VIC", "business_category": "Market", "lga": "Boroondara", "region": "Eastern Metro", "lon": 145.06819099999998, "lat": -37.840866999999996, "request": {"type": "GET", "url": "https://gfood-api.azurewebsites.net/markets/5eb7caf4380e65004468f460"}}}, {"type": "Feature", "geometry": {"type": "Point", "coordinates": [143.864505, -37.571940999999995]}, "properties": {"_id": "5eb7caf4380e65004468f461", "name": "Camp Street Market", "address": "Mining Exchange", "suburb": "Ballarat", "postcode": 3350, "state": "VIC", "business_category": "Market", "lga": "Ballarat", "region": "Grampians", "lon": 143.864505, "lat": -37.571940999999995, "request": {"type": "GET", "url": "https://gfood-api.azurewebsites.net/markets/5eb7caf4380e65004468f461"}}}, {"type": "Feature", "geometry": {"type": "Point", "coordinates": [144.956763, -37.666265]}, "properties": {"_id": "5eb7caf5380e65004468f462", "name": "Campbellfield Market", "address": "49 - 51 Cooper Street", "suburb": "Campbellfield", "postcode": 3061, "state": "VIC", "business_category": "Market", "lga": "Hume", "region": "North and West Metropolitan Region", "lon": 144.956763, "lat": -37.666265, "request": {"type": "GET", "url": "https://gfood-api.azurewebsites.net/markets/5eb7caf5380e65004468f462"}}}, {"type": "Feature", "geometry": {"type": "Point", "coordinates": [143.244766, -38.209584]}, "properties": {"_id": "5eb7caf5380e65004468f463", "name": "Camperdown Rotary Craft Market", "address": "Little Manifold Street", "suburb": "Camperdown", "postcode": 3260, "state": "VIC", "business_category": "Market", "lga": "Corangamite", "region": "Barwon S/W", "lon": 143.244766, "lat": -38.209584, "request": {"type": "GET", "url": "https://gfood-api.azurewebsites.net/markets/5eb7caf5380e65004468f463"}}}, {"type": "Feature", "geometry": {"type": "Point", "coordinates": [143.244766, -38.209584]}, "properties": {"_id": "5eb7caf6380e65004468f464", "name": "Camperdown Show Society Sunday Market", "address": "Camperdown Showgrounds", "suburb": "Camperdown", "postcode": 3260, "state": "VIC", "business_category": "Market", "lga": null, "region": null, "lon": 143.244766, "lat": -38.209584, "request": {"type": "GET", "url": "https://gfood-api.azurewebsites.net/markets/5eb7caf6380e65004468f464"}}}, {"type": "Feature", "geometry": {"type": "Point", "coordinates": [145.151119, -37.85523]}, "properties": {"_id": "5eb7caf6380e65004468f465", "name": "Canterbury Craft Market", "address": "Burwood East Reserve", "suburb": "Burwood East", "postcode": 3151, "state": "VIC", "business_category": "Market", "lga": "Whitehorse", "region": "Eastern Metro", "lon": 145.151119, "lat": -37.85523, "request": {"type": "GET", "url": "https://gfood-api.azurewebsites.net/markets/5eb7caf6380e65004468f465"}}}, {"type": "Feature", "geometry": {"type": "Point", "coordinates": [145.222634, -37.897137]}, "properties": {"_id": "5eb7caf6380e65004468f466", "name": "Caribbean Gardens Market", "address": "Ferntree Gully Road", "suburb": "Scoresby", "postcode": 3179, "state": "VIC", "business_category": "Market", "lga": "Knox", "region": "Eastern Metro", "lon": 145.222634, "lat": -37.897137, "request": {"type": "GET", "url": "https://gfood-api.azurewebsites.net/markets/5eb7caf6380e65004468f466"}}}, {"type": "Feature", "geometry": {"type": "Point", "coordinates": [143.841414, -37.019811]}, "properties": {"_id": "5eb7caf7380e65004468f467", "name": "Carisbrook Market", "address": "Carisbrook Town Hall", "suburb": "Carisbrook", "postcode": 3464, "state": "VIC", "business_category": "Market", "lga": "Central Goldfields", "region": "Loddon-Mallee", "lon": 143.841414, "lat": -37.019811, "request": {"type": "GET", "url": "https://gfood-api.azurewebsites.net/markets/5eb7caf7380e65004468f467"}}}, {"type": "Feature", "geometry": {"type": "Point", "coordinates": [144.77064099999998, -37.78272]}, "properties": {"_id": "5eb7caf8380e65004468f468", "name": "Caroline Springs Community Market", "address": "Lake Street", "suburb": "Caroline Springs", "postcode": 3023, "state": "VIC", "business_category": "Market", "lga": null, "region": null, "lon": 144.77064099999998, "lat": -37.78272, "request": {"type": "GET", "url": "https://gfood-api.azurewebsites.net/markets/5eb7caf8380e65004468f468"}}}, {"type": "Feature", "geometry": {"type": "Point", "coordinates": [145.168834, -37.914383]}, "properties": {"_id": "5eb7caf8380e65004468f469", "name": "Century City Walk Twilight Market", "address": "285 Springvale Road", "suburb": "Glen Waverley", "postcode": 3150, "state": "VIC", "business_category": "Market", "lga": "Monash", "region": "Eastern Metro", "lon": 145.168834, "lat": -37.914383, "request": {"type": "GET", "url": "https://gfood-api.azurewebsites.net/markets/5eb7caf8380e65004468f469"}}}, {"type": "Feature", "geometry": {"type": "Point", "coordinates": [145.090149, -37.882562]}, "properties": {"_id": "5eb7caf9380e65004468f46a", "name": "Chadstone Craft Market", "address": "Lower Mall, Chadstone Shopping Centre", "suburb": "Chadstone", "postcode": 3148, "state": "VIC", "business_category": "Market", "lga": "Stonnington , Monash", "region": "Southern Metro, Eastern Metro", "lon": 145.090149, "lat": -37.882562, "request": {"type": "GET", "url": "https://gfood-api.azurewebsites.net/markets/5eb7caf9380e65004468f46a"}}}, {"type": "Feature", "geometry": {"type": "Point", "coordinates": [143.364316, -36.2835]}, "properties": {"_id": "5eb7caf9380e65004468f46b", "name": "Charlton Lions Club Market", "address": "St Josephs School Oval", "suburb": "Charlton", "postcode": 3525, "state": "VIC", "business_category": "Market", "lga": "Buloke", "region": "Loddon-Mallee", "lon": 143.364316, "lat": -36.2835, "request": {"type": "GET", "url": "https://gfood-api.azurewebsites.net/markets/5eb7caf9380e65004468f46b"}}}, {"type": "Feature", "geometry": {"type": "Point", "coordinates": [145.12276200000002, -38.046479]}, "properties": {"_id": "5eb7cafa380e65004468f46c", "name": "Chelsea Heights Pre-Loved Market", "address": "Chelsea Heights Community Centre", "suburb": "Chelsea Heights (Melway ref. 93 F12)", "postcode": 3196, "state": "VIC", "business_category": "Market", "lga": "Kingston", "region": "Southern Metro", "lon": 145.12276200000002, "lat": -38.046479, "request": {"type": "GET", "url": "https://gfood-api.azurewebsites.net/markets/5eb7cafa380e65004468f46c"}}}, {"type": "Feature", "geometry": {"type": "Point", "coordinates": [145.12276200000002, -38.046479]}, "properties": {"_id": "5eb7cafa380e65004468f46d", "name": "Chelsea Trash & Treasure Craft Market", "address": "Behind Council Offices, 1Station Street", "suburb": "Chelsea", "postcode": 3196, "state": "VIC", "business_category": "Market", "lga": "Kingston", "region": "Southern Metro", "lon": 145.12276200000002, "lat": -38.046479, "request": {"type": "GET", "url": "https://gfood-api.azurewebsites.net/markets/5eb7cafa380e65004468f46d"}}}, {"type": "Feature", "geometry": {"type": "Point", "coordinates": [145.12276200000002, -38.046479]}, "properties": {"_id": "5eb7cafb380e65004468f46e", "name": "Chelsea Trash & Treasure & Craft Market", "address": "Behind Council Offices", "suburb": "Chelsea", "postcode": 3196, "state": "VIC", "business_category": "Market", "lga": "Kingston", "region": "Southern Metro", "lon": 145.12276200000002, "lat": -38.046479, "request": {"type": "GET", "url": "https://gfood-api.azurewebsites.net/markets/5eb7cafb380e65004468f46e"}}}, {"type": "Feature", "geometry": {"type": "Point", "coordinates": [145.0623, -37.965655]}, "properties": {"_id": "5eb7cafb380e65004468f46f", "name": "Cheltenham Rotary Market & Car Boot Sale", "address": "Undercover Car Park", "suburb": "Cheltenham", "postcode": 3192, "state": "VIC", "business_category": "Market", "lga": "Kingston , Bayside", "region": "Southern Metro", "lon": 145.0623, "lat": -37.965655, "request": {"type": "GET", "url": "https://gfood-api.azurewebsites.net/markets/5eb7cafb380e65004468f46f"}}}, {"type": "Feature", "geometry": {"type": "Point", "coordinates": [145.365993, -37.642852000000005]}, "properties": {"_id": "5eb7cafd380e65004468f470", "name": "Christmas Hills Community Market & Car Boot Sale", "address": "Christmas Hills Primary School", "suburb": "Christmas Hills", "postcode": 3775, "state": "VIC", "business_category": "Market", "lga": null, "region": null, "lon": 145.365993, "lat": -37.642852000000005, "request": {"type": "GET", "url": "https://gfood-api.azurewebsites.net/markets/5eb7cafd380e65004468f470"}}}, {"type": "Feature", "geometry": {"type": "Point", "coordinates": [143.81561299999998, -37.252718]}, "properties": {"_id": "5eb7cafd380e65004468f471", "name": "Clunes Country Market", "address": "Main Street", "suburb": "Clunes", "postcode": 3370, "state": "VIC", "business_category": "Market", "lga": "Hepburn", "region": "Grampians", "lon": 143.81561299999998, "lat": -37.252718, "request": {"type": "GET", "url": "https://gfood-api.azurewebsites.net/markets/5eb7cafd380e65004468f471"}}}, {"type": "Feature", "geometry": {"type": "Point", "coordinates": [145.63268200000002, -35.945353000000004]}, "properties": {"_id": "5eb7cafe380e65004468f472", "name": "Cobram Lions Log Cabin Market", "address": "Punt Road", "suburb": "Cobram", "postcode": 3644, "state": "VIC", "business_category": "Market", "lga": "Moira", "region": "Hume", "lon": 145.63268200000002, "lat": -35.945353000000004, "request": {"type": "GET", "url": "https://gfood-api.azurewebsites.net/markets/5eb7cafe380e65004468f472"}}}, {"type": "Feature", "geometry": {"type": "Point", "coordinates": [144.964524, -37.739901]}, "properties": {"_id": "5eb7cafe380e65004468f473", "name": "Coburg Trash & Treasure Market", "address": "Village Drive-In Theatre", "suburb": "Coburg", "postcode": 3058, "state": "VIC", "business_category": "Market", "lga": "Moreland", "region": "North and West Metropolitan Region", "lon": 144.964524, "lat": -37.739901, "request": {"type": "GET", "url": "https://gfood-api.azurewebsites.net/markets/5eb7cafe380e65004468f473"}}}, {"type": "Feature", "geometry": {"type": "Point", "coordinates": [143.584742, -38.311513]}, "properties": {"_id": "5eb7caff380e65004468f474", "name": "Colac Lions Club Sunday Market", "address": "Memorial Square", "suburb": "Colac", "postcode": 3250, "state": "VIC", "business_category": "Market", "lga": "Colac-otway", "region": "Barwon S/W", "lon": 143.584742, "lat": -38.311513, "request": {"type": "GET", "url": "https://gfood-api.azurewebsites.net/markets/5eb7caff380e65004468f474"}}}, {"type": "Feature", "geometry": {"type": "Point", "coordinates": [145.231974, -38.482182]}, "properties": {"_id": "5eb7caff380e65004468f475", "name": "Cowes Market", "address": "Lot 59", "suburb": "Cowes", "postcode": 3922, "state": "VIC", "business_category": "Market", "lga": "Bass Coast", "region": "Gippsland", "lon": 145.231974, "lat": -38.482182, "request": {"type": "GET", "url": "https://gfood-api.azurewebsites.net/markets/5eb7caff380e65004468f475"}}}, {"type": "Feature", "geometry": {"type": "Point", "coordinates": [144.299978, -38.307545000000005]}, "properties": {"_id": "5eb7cb00380e65004468f476", "name": "Cowrie Community Market", "address": "Elephant Walk, Foreshore", "suburb": "Torquay", "postcode": 3228, "state": "VIC", "business_category": "Market", "lga": "Surf Coast", "region": "Barwon S/W", "lon": 144.299978, "lat": -38.307545000000005, "request": {"type": "GET", "url": "https://gfood-api.azurewebsites.net/markets/5eb7cb00380e65004468f476"}}}, {"type": "Feature", "geometry": {"type": "Point", "coordinates": [144.942199, -37.546521999999996]}, "properties": {"_id": "5eb7cb00380e65004468f477", "name": "Craigieburn Market", "address": "Craigieburn Leisure Centre Car Park", "suburb": "Craigieburn", "postcode": 3064, "state": "VIC", "business_category": "Market", "lga": "Whittlesea; Hume", "region": "North and West Metropolitan Region", "lon": 144.942199, "lat": -37.546521999999996, "request": {"type": "GET", "url": "https://gfood-api.azurewebsites.net/markets/5eb7cb00380e65004468f477"}}}, {"type": "Feature", "geometry": {"type": "Point", "coordinates": [145.075748, -37.827203000000004]}, "properties": {"_id": "5eb7cb01380e65004468f478", "name": "Creations at Canterbury Indoor Craft Market", "address": "Presbyterian Church", "suburb": "Canterbury", "postcode": 3126, "state": "VIC", "business_category": "Market", "lga": "Boroondara", "region": "Eastern Metro", "lon": 145.075748, "lat": -37.827203000000004, "request": {"type": "GET", "url": "https://gfood-api.azurewebsites.net/markets/5eb7cb01380e65004468f478"}}}, {"type": "Feature", "geometry": {"type": "Point", "coordinates": [143.88637, -37.420588]}, "properties": {"_id": "5eb7cb01380e65004468f479", "name": "Creswick Market", "address": "The Mill", "suburb": "Creswick", "postcode": 3363, "state": "VIC", "business_category": "Market", "lga": null, "region": null, "lon": 143.88637, "lat": -37.420588, "request": {"type": "GET", "url": "https://gfood-api.azurewebsites.net/markets/5eb7cb01380e65004468f479"}}}, {"type": "Feature", "geometry": {"type": "Point", "coordinates": [145.282396, -37.779876]}, "properties": {"_id": "5eb7cb02380e65004468f47a", "name": "Croydon Market", "address": "Opposite Croydon Railway Station", "suburb": "Croydon", "postcode": 3136, "state": "VIC", "business_category": "Market", "lga": "Maroondah (C)", "region": "Eastern Metropolitan Region", "lon": 145.282396, "lat": -37.779876, "request": {"type": "GET", "url": "https://gfood-api.azurewebsites.net/markets/5eb7cb02380e65004468f47a"}}}, {"type": "Feature", "geometry": {"type": "Point", "coordinates": [145.208504, -38.016114]}, "properties": {"_id": "5eb7cb02380e65004468f47b", "name": "Dandenong Trash & Treasure Market", "address": "Cnr South Gippsland Highway and Hallam Valley Rd", "suburb": "Dandenong South", "postcode": 3175, "state": "VIC", "business_category": "Market", "lga": "Greater Dandenong", "region": "Southern Metro", "lon": 145.208504, "lat": -38.016114, "request": {"type": "GET", "url": "https://gfood-api.azurewebsites.net/markets/5eb7cb02380e65004468f47b"}}}, {"type": "Feature", "geometry": {"type": "Point", "coordinates": [144.394442, -37.787135]}, "properties": {"_id": "5eb7cb03380e65004468f47c", "name": "Darley Market", "address": "Darley Park", "suburb": "Bacchus Marsh", "postcode": 3340, "state": "VIC", "business_category": "Market", "lga": "Wyndham , Moorabool , Melton", "region": "Grampians", "lon": 144.394442, "lat": -37.787135, "request": {"type": "GET", "url": "https://gfood-api.azurewebsites.net/markets/5eb7cb03380e65004468f47c"}}}, {"type": "Feature", "geometry": {"type": "Point", "coordinates": [144.144216, -37.351704]}, "properties": {"_id": "5eb7cb03380e65004468f47d", "name": "Daylesford Sunday Market", "address": "Railway Station", "suburb": "Daylesford", "postcode": 3460, "state": "VIC", "business_category": "Market", "lga": "Hepburn (S)", "region": "Grampians Region", "lon": 144.144216, "lat": -37.351704, "request": {"type": "GET", "url": "https://gfood-api.azurewebsites.net/markets/5eb7cb03380e65004468f47d"}}}, {"type": "Feature", "geometry": {"type": "Point", "coordinates": [145.101, -37.851304999999996]}, "properties": {"_id": "5eb7cb04380e65004468f47e", "name": "Deakin University Market", "address": "Burwood Campus", "suburb": "Burwood", "postcode": 3125, "state": "VIC", "business_category": "Market", "lga": "Whitehorse , Monash , Boroondara", "region": "Eastern Metro", "lon": 145.101, "lat": -37.851304999999996, "request": {"type": "GET", "url": "https://gfood-api.azurewebsites.net/markets/5eb7cb04380e65004468f47e"}}}, {"type": "Feature", "geometry": {"type": "Point", "coordinates": [145.13465, -37.975981]}, "properties": {"_id": "5eb7cb04380e65004468f47f", "name": "Dingley Village Craft Market", "address": "Dingley Village Neighbourhood Centre", "suburb": "Dingley Village", "postcode": 3172, "state": "VIC", "business_category": "Market", "lga": "Greater Dandenong", "region": "Southern Metro", "lon": 145.13465, "lat": -37.975981, "request": {"type": "GET", "url": "https://gfood-api.azurewebsites.net/markets/5eb7cb04380e65004468f47f"}}}, {"type": "Feature", "geometry": {"type": "Point", "coordinates": [145.007626, -38.326446999999995]}, "properties": {"_id": "5eb7cb04380e65004468f480", "name": "Dromana Drive-In Market", "address": "Drive-In", "suburb": "Dromana", "postcode": 3936, "state": "VIC", "business_category": "Market", "lga": "Mornington Peninsula", "region": "Southern Metro", "lon": 145.007626, "lat": -38.326446999999995, "request": {"type": "GET", "url": "https://gfood-api.azurewebsites.net/markets/5eb7cb04380e65004468f480"}}}, {"type": "Feature", "geometry": {"type": "Point", "coordinates": [144.57298899999998, -38.209921]}, "properties": {"_id": "5eb7cb05380e65004468f481", "name": "Drysdale Community Market", "address": "Recreation Reserve", "suburb": "Drysdale", "postcode": 3222, "state": "VIC", "business_category": "Market", "lga": "Greater Geelong", "region": "Barwon S/W", "lon": 144.57298899999998, "lat": -38.209921, "request": {"type": "GET", "url": "https://gfood-api.azurewebsites.net/markets/5eb7cb05380e65004468f481"}}}, {"type": "Feature", "geometry": {"type": "Point", "coordinates": [144.25549, -36.7146155]}, "properties": {"_id": "5eb7cb05380e65004468f482", "name": "Eaglehawk Lions Lakeside Market", "address": "Lake Neangar (Napier St side)", "suburb": "Eaglehawk", "postcode": null, "state": null, "business_category": "Market", "lga": null, "region": null, "lon": 144.25549, "lat": -36.7146155, "request": {"type": "GET", "url": "https://gfood-api.azurewebsites.net/markets/5eb7cb05380e65004468f482"}}}, {"type": "Feature", "geometry": {"type": "Point", "coordinates": [144.6014151, -36.18096611]}, "properties": {"_id": "5eb7cb06380e65004468f483", "name": "Echuca Loco Shed Market", "address": "Aquatic Reserve", "suburb": "Echuca", "postcode": 3564, "state": "VIC", "business_category": "Market", "lga": null, "region": null, "lon": 144.6014151, "lat": -36.18096611, "request": {"type": "GET", "url": "https://gfood-api.azurewebsites.net/markets/5eb7cb06380e65004468f483"}}}, {"type": "Feature", "geometry": {"type": "Point", "coordinates": [145.158579, -37.713299]}, "properties": {"_id": "5eb7cb06380e65004468f484", "name": "Eltham Community Market", "address": "Panther Place", "suburb": "Eltham", "postcode": 3095, "state": "VIC", "business_category": "Market", "lga": "Nillumbik", "region": "North and West Metropolitan Region", "lon": 145.158579, "lat": -37.713299, "request": {"type": "GET", "url": "https://gfood-api.azurewebsites.net/markets/5eb7cb06380e65004468f484"}}}, {"type": "Feature", "geometry": {"type": "Point", "coordinates": [144.984034, -37.881414]}, "properties": {"_id": "5eb7cb07380e65004468f485", "name": "Elwood Market", "address": "Elwood Primary School", "suburb": "Elwood (Melway ref. 67 C3)", "postcode": 3184, "state": "VIC", "business_category": "Market", "lga": "Port Phillip", "region": "Southern Metro", "lon": 144.984034, "lat": -37.881414, "request": {"type": "GET", "url": "https://gfood-api.azurewebsites.net/markets/5eb7cb07380e65004468f485"}}}, {"type": "Feature", "geometry": {"type": "Point", "coordinates": [145.433024, -37.938068]}, "properties": {"_id": "5eb7cb07380e65004468f486", "name": "Emerald Art Society Market", "address": "Emerald Community Hall", "suburb": "Emerald", "postcode": 3782, "state": "VIC", "business_category": "Market", "lga": null, "region": null, "lon": 145.433024, "lat": -37.938068, "request": {"type": "GET", "url": "https://gfood-api.azurewebsites.net/markets/5eb7cb07380e65004468f486"}}}, {"type": "Feature", "geometry": {"type": "Point", "coordinates": [144.45793700000002, -36.78137]}, "properties": {"_id": "5eb7cb08380e65004468f487", "name": "Epsom Tourist Market", "address": "9km from Bendigo along Midland Highway towards Echuca", "suburb": "Epsom", "postcode": 3551, "state": "VIC", "business_category": "Market", "lga": "Greater Bendigo", "region": "Loddon-Mallee", "lon": 144.45793700000002, "lat": -36.78137, "request": {"type": "GET", "url": "https://gfood-api.azurewebsites.net/markets/5eb7cb08380e65004468f487"}}}, {"type": "Feature", "geometry": {"type": "Point", "coordinates": [144.9011039, -37.72674618]}, "properties": {"_id": "5eb7cb08380e65004468f488", "name": "Essendon North Market", "address": "1059 Mt Alexander Road", "suburb": "Essendon North", "postcode": 3041, "state": "VIC", "business_category": "Market", "lga": "Moonee Valley", "region": "North and West Metropolitan Region", "lon": 144.9011039, "lat": -37.72674618, "request": {"type": "GET", "url": "https://gfood-api.azurewebsites.net/markets/5eb7cb08380e65004468f488"}}}, {"type": "Feature", "geometry": {"type": "Point", "coordinates": [144.956776, -37.817403000000006]}, "properties": {"_id": "5eb7cb09380e65004468f489", "name": "Federation Square Book Market", "address": "Atrium, Federation Square", "suburb": "Melbourne", "postcode": 3000, "state": "VIC", "business_category": "Market", "lga": "Melbourne", "region": "North and West Metropolitan Region", "lon": 144.956776, "lat": -37.817403000000006, "request": {"type": "GET", "url": "https://gfood-api.azurewebsites.net/markets/5eb7cb09380e65004468f489"}}}, {"type": "Feature", "geometry": {"type": "Point", "coordinates": [144.923403, -37.79119]}, "properties": {"_id": "5eb7cb0b380e65004468f48a", "name": "Flemington Racecourse Market", "address": "Flemington Racecourse", "suburb": "Flemington", "postcode": 3031, "state": "VIC", "business_category": "Market", "lga": "Moonee Valley (C); Melbourne (C)", "region": "North and West Metropolitan Region", "lon": 144.923403, "lat": -37.79119, "request": {"type": "GET", "url": "https://gfood-api.azurewebsites.net/markets/5eb7cb0b380e65004468f48a"}}}, {"type": "Feature", "geometry": {"type": "Point", "coordinates": [145.135961, -38.162578]}, "properties": {"_id": "5eb7cb0b380e65004468f48b", "name": "Frankston Karingal Uniting Church Market", "address": "Cnr Karingal Dve and Lindrum Road", "suburb": "Frankston", "postcode": 3199, "state": "VIC", "business_category": "Market", "lga": "Frankston (C)", "region": "Southern Metropolitan Region", "lon": 145.135961, "lat": -38.162578, "request": {"type": "GET", "url": "https://gfood-api.azurewebsites.net/markets/5eb7cb0b380e65004468f48b"}}}, {"type": "Feature", "geometry": {"type": "Point", "coordinates": [145.135961, -38.162578]}, "properties": {"_id": "5eb7cb0c380e65004468f48c", "name": "Frankston Sunday Market", "address": "Young Street Car Park", "suburb": "Frankston", "postcode": 3199, "state": "VIC", "business_category": "Market", "lga": "Frankston", "region": "Southern Metro", "lon": 145.135961, "lat": -38.162578, "request": {"type": "GET", "url": "https://gfood-api.azurewebsites.net/markets/5eb7cb0c380e65004468f48c"}}}, {"type": "Feature", "geometry": {"type": "Point", "coordinates": [145.669112, -38.10718]}, "properties": {"_id": "5eb7cb0c380e65004468f48d", "name": "Garfield Variety Market", "address": "Garfield Recreation Reserve", "suburb": "Garfield", "postcode": 3814, "state": "VIC", "business_category": "Market", "lga": null, "region": null, "lon": 145.669112, "lat": -38.10718, "request": {"type": "GET", "url": "https://gfood-api.azurewebsites.net/markets/5eb7cb0c380e65004468f48d"}}}, {"type": "Feature", "geometry": {"type": "Point", "coordinates": [144.389533, -38.17277]}, "properties": {"_id": "5eb7cb0d380e65004468f48e", "name": "Geelong Showgrounds Market", "address": "Cnr Breakwater Road & Carr Street", "suburb": "East Geelong", "postcode": 3219, "state": "VIC", "business_category": "Market", "lga": "Greater Geelong", "region": "Barwon S/W", "lon": 144.389533, "lat": -38.17277, "request": {"type": "GET", "url": "https://gfood-api.azurewebsites.net/markets/5eb7cb0d380e65004468f48e"}}}, {"type": "Feature", "geometry": {"type": "Point", "coordinates": [145.596576, -37.947379]}, "properties": {"_id": "5eb7cb0d380e65004468f48f", "name": "Gembrook Market", "address": "Puffing Billy Station", "suburb": "Gembrook", "postcode": 3783, "state": "VIC", "business_category": "Market", "lga": null, "region": null, "lon": 145.596576, "lat": -37.947379, "request": {"type": "GET", "url": "https://gfood-api.azurewebsites.net/markets/5eb7cb0d380e65004468f48f"}}}, {"type": "Feature", "geometry": {"type": "Point", "coordinates": [146.34293200000002, -37.978862]}, "properties": {"_id": "5eb7cb0e380e65004468f490", "name": "Gippsland Craft & Produce Market", "address": "Gippsland Heritage Park", "suburb": "Moe", "postcode": 3825, "state": "VIC", "business_category": "Market", "lga": "La Trobe , Baw Baw", "region": "Gippsland", "lon": 146.34293200000002, "lat": -37.978862, "request": {"type": "GET", "url": "https://gfood-api.azurewebsites.net/markets/5eb7cb0e380e65004468f490"}}}, {"type": "Feature", "geometry": {"type": "Point", "coordinates": [144.513018, -37.501619]}, "properties": {"_id": "5eb7cb0e380e65004468f491", "name": "Gisborne Village All Seasons Market", "address": "Gisborne Village Shopping Centre", "suburb": "Gisborne", "postcode": 3437, "state": "VIC", "business_category": "Market", "lga": "Macedon Ranges , Melton", "region": "Loddon-Mallee", "lon": 144.513018, "lat": -37.501619, "request": {"type": "GET", "url": "https://gfood-api.azurewebsites.net/markets/5eb7cb0e380e65004468f491"}}}, {"type": "Feature", "geometry": {"type": "Point", "coordinates": [145.56397900000002, -38.312647]}, "properties": {"_id": "5eb7cb0f380e65004468f492", "name": "Grantville Variety Market", "address": "Grantville Hall", "suburb": "Grantville", "postcode": 3984, "state": "VIC", "business_category": "Market", "lga": "Bass Coast , Cardinia", "region": "Southern Metro, Gippsland", "lon": 145.56397900000002, "lat": -38.312647, "request": {"type": "GET", "url": "https://gfood-api.azurewebsites.net/markets/5eb7cb0f380e65004468f492"}}}, {"type": "Feature", "geometry": {"type": "Point", "coordinates": [145.108339, -37.700175]}, "properties": {"_id": "5eb7cb0f380e65004468f493", "name": "Greensborough Community Market", "address": "Para Road", "suburb": "Greensborough", "postcode": 3088, "state": "VIC", "business_category": "Market", "lga": "Nillumbik ; Banyule", "region": "North and West Metropolitan Region", "lon": 145.108339, "lat": -37.700175, "request": {"type": "GET", "url": "https://gfood-api.azurewebsites.net/markets/5eb7cb0f380e65004468f493"}}}, {"type": "Feature", "geometry": {"type": "Point", "coordinates": [145.292895, -37.917932]}, "properties": {"_id": "5eb7cb0f380e65004468f494", "name": "Gully Market", "address": "Railway Car Park", "suburb": "Upper Ferntree Gully", "postcode": 3156, "state": "VIC", "business_category": "Market", "lga": "Yarra Ranges (S); Knox (C)", "region": "Eastern Metropolitan Region", "lon": 145.292895, "lat": -37.917932, "request": {"type": "GET", "url": "https://gfood-api.azurewebsites.net/markets/5eb7cb0f380e65004468f494"}}}, {"type": "Feature", "geometry": {"type": "Point", "coordinates": [145.63433899999998, -38.064252]}, "properties": {"_id": "5eb7cb10380e65004468f495", "name": "Gumbuya Park Monthly Craft Market", "address": "Gumbuya Park", "suburb": "Tynong", "postcode": 3813, "state": "VIC", "business_category": "Market", "lga": null, "region": null, "lon": 145.63433899999998, "lat": -38.064252, "request": {"type": "GET", "url": "https://gfood-api.azurewebsites.net/markets/5eb7cb10380e65004468f495"}}}, {"type": "Feature", "geometry": {"type": "Point", "coordinates": [142.7154, -36.988914]}, "properties": {"_id": "5eb7cb10380e65004468f496", "name": "Halls Gap Art & Craft Market", "address": "Halls Gap Primary School", "suburb": "Halls Gap", "postcode": 3381, "state": "VIC", "business_category": "Market", "lga": "Northern Grampians", "region": "Grampians", "lon": 142.7154, "lat": -36.988914, "request": {"type": "GET", "url": "https://gfood-api.azurewebsites.net/markets/5eb7cb10380e65004468f496"}}}, {"type": "Feature", "geometry": {"type": "Point", "coordinates": [145.007238, -37.938889]}, "properties": {"_id": "5eb7cb11380e65004468f497", "name": "Hampton Craft Market", "address": "Hamilton Community Centre", "suburb": "Hampton", "postcode": 3188, "state": "VIC", "business_category": "Market", "lga": "Bayside", "region": "Southern Metro", "lon": 145.007238, "lat": -37.938889, "request": {"type": "GET", "url": "https://gfood-api.azurewebsites.net/markets/5eb7cb11380e65004468f497"}}}, {"type": "Feature", "geometry": {"type": "Point", "coordinates": [145.136622, -38.305806]}, "properties": {"_id": "5eb7cb12380e65004468f498", "name": "Hastings on Westernport Craft Market", "address": "High Street", "suburb": "Hastings", "postcode": 3915, "state": "VIC", "business_category": "Market", "lga": "Mornington Peninsula", "region": "Southern Metro", "lon": 145.136622, "lat": -38.305806, "request": {"type": "GET", "url": "https://gfood-api.azurewebsites.net/markets/5eb7cb12380e65004468f498"}}}, {"type": "Feature", "geometry": {"type": "Point", "coordinates": [141.365747, -37.6391]}, "properties": {"_id": "5eb7cb12380e65004468f499", "name": "Haven Market", "address": "Henty Hwy", "suburb": "Henty (5km south of Horsham)", "postcode": 3312, "state": "VIC", "business_category": "Market", "lga": null, "region": null, "lon": 141.365747, "lat": -37.6391, "request": {"type": "GET", "url": "https://gfood-api.azurewebsites.net/markets/5eb7cb12380e65004468f499"}}}, {"type": "Feature", "geometry": {"type": "Point", "coordinates": [145.03060200000002, -37.822725]}, "properties": {"_id": "5eb7cb13380e65004468f49a", "name": "Hawthorn Craft Market", "address": "Hawthorn Town Hall", "suburb": "Hawthorn", "postcode": 3122, "state": "VIC", "business_category": "Market", "lga": "Boroondara (C)", "region": "Eastern Metropolitan Region", "lon": 145.03060200000002, "lat": -37.822725, "request": {"type": "GET", "url": "https://gfood-api.azurewebsites.net/markets/5eb7cb13380e65004468f49a"}}}, {"type": "Feature", "geometry": {"type": "Point", "coordinates": [145.513804, -37.606088]}, "properties": {"_id": "5eb7cb13380e65004468f49b", "name": "Healesville Community Market", "address": "River Street Carpark", "suburb": "Healesville", "postcode": 3777, "state": "VIC", "business_category": "Market", "lga": "Yarra Ranges", "region": "Eastern Metro", "lon": 145.513804, "lat": -37.606088, "request": {"type": "GET", "url": "https://gfood-api.azurewebsites.net/markets/5eb7cb13380e65004468f49b"}}}, {"type": "Feature", "geometry": {"type": "Point", "coordinates": [145.513804, -37.606088]}, "properties": {"_id": "5eb7cb13380e65004468f49c", "name": "Healesville Racecourse Market", "address": "Healesville Racecourse", "suburb": "Healesville", "postcode": 3777, "state": "VIC", "business_category": "Market", "lga": "Yarra Ranges", "region": "Eastern Metro", "lon": 145.513804, "lat": -37.606088, "request": {"type": "GET", "url": "https://gfood-api.azurewebsites.net/markets/5eb7cb13380e65004468f49c"}}}, {"type": "Feature", "geometry": {"type": "Point", "coordinates": [144.768359, -36.837461]}, "properties": {"_id": "5eb7cb14380e65004468f49d", "name": "Heathcote Bush Market", "address": "Barrack Reserve", "suburb": "Heathcote", "postcode": 3523, "state": "VIC", "business_category": "Market", "lga": "Greater Bendigo", "region": "Loddon-Mallee", "lon": 144.768359, "lat": -36.837461, "request": {"type": "GET", "url": "https://gfood-api.azurewebsites.net/markets/5eb7cb14380e65004468f49d"}}}, {"type": "Feature", "geometry": {"type": "Point", "coordinates": [146.8291658, -37.3690401]}, "properties": {"_id": "5eb7cb14380e65004468f49e", "name": "Heyfield Market", "address": "John Graves Memorial Park", "suburb": "Heyfield", "postcode": 3858, "state": "VIC", "business_category": "Market", "lga": "Wellington", "region": "Gippsland", "lon": 146.8291658, "lat": -37.3690401, "request": {"type": "GET", "url": "https://gfood-api.azurewebsites.net/markets/5eb7cb14380e65004468f49e"}}}, {"type": "Feature", "geometry": {"type": "Point", "coordinates": [142.203729, -36.725245]}, "properties": {"_id": "5eb7cb15380e65004468f49f", "name": "Horsham Produce Market", "address": "May Park", "suburb": "Horsham", "postcode": 3400, "state": "VIC", "business_category": "Market", "lga": "Horsham Rural", "region": "Grampians", "lon": 142.203729, "lat": -36.725245, "request": {"type": "GET", "url": "https://gfood-api.azurewebsites.net/markets/5eb7cb15380e65004468f49f"}}}, {"type": "Feature", "geometry": {"type": "Point", "coordinates": [143.88056, -38.087758]}, "properties": {"_id": "5eb7cb16380e65004468f4a0", "name": "Inverleigh Market", "address": "Victora Park", "suburb": "Inverleigh", "postcode": 3321, "state": "VIC", "business_category": "Market", "lga": "Golden Plains", "region": "Grampians", "lon": 143.88056, "lat": -38.087758, "request": {"type": "GET", "url": "https://gfood-api.azurewebsites.net/markets/5eb7cb16380e65004468f4a0"}}}, {"type": "Feature", "geometry": {"type": "Point", "coordinates": [145.745609, -38.629560999999995]}, "properties": {"_id": "5eb7cb16380e65004468f4a1", "name": "Inverloch Community Centre Market", "address": "Community Centre", "suburb": "Inverloch", "postcode": 3996, "state": "VIC", "business_category": "Market", "lga": "Bass Coast", "region": "Gippsland", "lon": 145.745609, "lat": -38.629560999999995, "request": {"type": "GET", "url": "https://gfood-api.azurewebsites.net/markets/5eb7cb16380e65004468f4a1"}}}, {"type": "Feature", "geometry": {"type": "Point", "coordinates": [143.66238700000002, -37.482132]}, "properties": {"_id": "5eb7cb17380e65004468f4a2", "name": "Invermay Country Market", "address": "Invermay Primary School", "suburb": "Invermay", "postcode": 3352, "state": "VIC", "business_category": "Market", "lga": null, "region": null, "lon": 143.66238700000002, "lat": -37.482132, "request": {"type": "GET", "url": "https://gfood-api.azurewebsites.net/markets/5eb7cb17380e65004468f4a2"}}}, {"type": "Feature", "geometry": {"type": "Point", "coordinates": [145.231974, -38.482182]}, "properties": {"_id": "5eb7cb17380e65004468f4a3", "name": "Island Craft Market", "address": "Parish Hall", "suburb": "Cowes", "postcode": 3922, "state": "VIC", "business_category": "Market", "lga": "Bass Coast", "region": "Gippsland", "lon": 145.231974, "lat": -38.482182, "request": {"type": "GET", "url": "https://gfood-api.azurewebsites.net/markets/5eb7cb17380e65004468f4a3"}}}, {"type": "Feature", "geometry": {"type": "Point", "coordinates": [145.798419, -38.47372]}, "properties": {"_id": "5eb7cb18380e65004468f4a4", "name": "Jumbunna Bush Market", "address": "Public Hall", "suburb": "Jumbunna (6km from Korumburra)", "postcode": 3951, "state": "VIC", "business_category": "Market", "lga": null, "region": null, "lon": 145.798419, "lat": -38.47372, "request": {"type": "GET", "url": "https://gfood-api.azurewebsites.net/markets/5eb7cb18380e65004468f4a4"}}}, {"type": "Feature", "geometry": {"type": "Point", "coordinates": [151.203952, -33.879758]}, "properties": {"_id": "5eb7cb18380e65004468f4a5", "name": "Junbunna Bush Market", "address": "Public Hall, 6km from Korumburra", "suburb": null, "postcode": null, "state": null, "business_category": "Market", "lga": null, "region": null, "lon": 151.203952, "lat": -33.879758, "request": {"type": "GET", "url": "https://gfood-api.azurewebsites.net/markets/5eb7cb18380e65004468f4a5"}}}, {"type": "Feature", "geometry": {"type": "Point", "coordinates": [141.940832, -36.881534]}, "properties": {"_id": "5eb7cb19380e65004468f4a6", "name": "Jung Market", "address": "Jung Recreation Reserve", "suburb": "Jung", "postcode": 3401, "state": "VIC", "business_category": "Market", "lga": null, "region": null, "lon": 141.940832, "lat": -36.881534, "request": {"type": "GET", "url": "https://gfood-api.azurewebsites.net/markets/5eb7cb19380e65004468f4a6"}}}, {"type": "Feature", "geometry": {"type": "Point", "coordinates": [145.37962199999998, -37.896916999999995]}, "properties": {"_id": "5eb7cb19380e65004468f4a7", "name": "Kallista Community Market", "address": "Church Street", "suburb": "Kallista", "postcode": 3791, "state": "VIC", "business_category": "Market", "lga": "Yarra Ranges", "region": "Eastern Metro", "lon": 145.37962199999998, "lat": -37.896916999999995, "request": {"type": "GET", "url": "https://gfood-api.azurewebsites.net/markets/5eb7cb19380e65004468f4a7"}}}, {"type": "Feature", "geometry": {"type": "Point", "coordinates": [143.769445, -35.767974]}, "properties": {"_id": "5eb7cb19380e65004468f4a8", "name": "Kerang Community Market", "address": "Atkinson Park", "suburb": "Kerang", "postcode": 3579, "state": "VIC", "business_category": "Market", "lga": null, "region": null, "lon": 143.769445, "lat": -35.767974, "request": {"type": "GET", "url": "https://gfood-api.azurewebsites.net/markets/5eb7cb19380e65004468f4a8"}}}, {"type": "Feature", "geometry": {"type": "Point", "coordinates": [144.900644, -37.263736]}, "properties": {"_id": "5eb7cb1a380e65004468f4a9", "name": "Kilmore Scouts Trackside Market", "address": "KIlmore Racecourse", "suburb": "Kilmore", "postcode": 3764, "state": "VIC", "business_category": "Market", "lga": null, "region": null, "lon": 144.900644, "lat": -37.263736, "request": {"type": "GET", "url": "https://gfood-api.azurewebsites.net/markets/5eb7cb1a380e65004468f4a9"}}}, {"type": "Feature", "geometry": {"type": "Point", "coordinates": [145.798419, -38.47372]}, "properties": {"_id": "5eb7cb1a380e65004468f4aa", "name": "Kongwak Market", "address": "Kongwak General Store & Sheds", "suburb": "Kongwak", "postcode": 3951, "state": "VIC", "business_category": "Market", "lga": "Bass Coast (S)", "region": "Gippsland Region", "lon": 145.798419, "lat": -38.47372, "request": {"type": "GET", "url": "https://gfood-api.azurewebsites.net/markets/5eb7cb1a380e65004468f4aa"}}}, {"type": "Feature", "geometry": {"type": "Point", "coordinates": [145.082735, -36.284584]}, "properties": {"_id": "5eb7cb1b380e65004468f4ab", "name": "Kyabram Lions Club Market", "address": "Kyabram Fauna Park", "suburb": "Kyabram", "postcode": 3620, "state": "VIC", "business_category": "Market", "lga": "Greater Shepparton , Campaspe", "region": "Loddon-Mallee, Hume", "lon": 145.082735, "lat": -36.284584, "request": {"type": "GET", "url": "https://gfood-api.azurewebsites.net/markets/5eb7cb1b380e65004468f4ab"}}}, {"type": "Feature", "geometry": {"type": "Point", "coordinates": [144.544716, -37.171788]}, "properties": {"_id": "5eb7cb1b380e65004468f4ac", "name": "Kyneton Craft & Junk & Jewel Market", "address": "Kyneton Showgrounds", "suburb": "Kyneton", "postcode": 3444, "state": "VIC", "business_category": "Market", "lga": "Macedon Ranges", "region": "Loddon-Mallee", "lon": 144.544716, "lat": -37.171788, "request": {"type": "GET", "url": "https://gfood-api.azurewebsites.net/markets/5eb7cb1b380e65004468f4ac"}}}, {"type": "Feature", "geometry": {"type": "Point", "coordinates": [145.056223, -37.701346]}, "properties": {"_id": "5eb7cb1c380e65004468f4ad", "name": "La Trobe University Union Market", "address": "La Trobe University", "suburb": "Bundoora", "postcode": 3083, "state": "VIC", "business_category": "Market", "lga": "Whittlesea ; Darebin ; Banyule", "region": "North and West Metropolitan Region", "lon": 145.056223, "lat": -37.701346, "request": {"type": "GET", "url": "https://gfood-api.azurewebsites.net/markets/5eb7cb1c380e65004468f4ad"}}}, {"type": "Feature", "geometry": {"type": "Point", "coordinates": [147.970237, -37.821921]}, "properties": {"_id": "5eb7cb1c380e65004468f4ae", "name": "Lakes Entrance Primary School Community Market", "address": "Evett Park", "suburb": "Lakes Entrance", "postcode": 3909, "state": "VIC", "business_category": "Market", "lga": "East Gippsland", "region": "Gippsland", "lon": 147.970237, "lat": -37.821921, "request": {"type": "GET", "url": "https://gfood-api.azurewebsites.net/markets/5eb7cb1c380e65004468f4ae"}}}, {"type": "Feature", "geometry": {"type": "Point", "coordinates": [144.750796, -37.35388]}, "properties": {"_id": "5eb7cb1d380e65004468f4af", "name": "Lancefield-Romsey Lions Club Market", "address": "Main Street", "suburb": "Romsey", "postcode": 3434, "state": "VIC", "business_category": "Market", "lga": "Macedon Ranges", "region": "Loddon-Mallee", "lon": 144.750796, "lat": -37.35388, "request": {"type": "GET", "url": "https://gfood-api.azurewebsites.net/markets/5eb7cb1d380e65004468f4af"}}}, {"type": "Feature", "geometry": {"type": "Point", "coordinates": [145.86733700000002, -38.096289]}, "properties": {"_id": "5eb7cb1d380e65004468f4b0", "name": "Lardner Park Market", "address": "Burnt-Store Road", "suburb": "Drouin", "postcode": 3818, "state": "VIC", "business_category": "Market", "lga": "Baw Baw (S)", "region": "Gippsland Region", "lon": 145.86733700000002, "lat": -38.096289, "request": {"type": "GET", "url": "https://gfood-api.azurewebsites.net/markets/5eb7cb1d380e65004468f4b0"}}}, {"type": "Feature", "geometry": {"type": "Point", "coordinates": [146.42445700000002, -38.245215]}, "properties": {"_id": "5eb7cb1e380e65004468f4b1", "name": "Latrobe Country Market", "address": "Latrobe Road", "suburb": "Morwell", "postcode": 3840, "state": "VIC", "business_category": "Market", "lga": "La Trobe", "region": "Gippsland", "lon": 146.42445700000002, "lat": -38.245215, "request": {"type": "GET", "url": "https://gfood-api.azurewebsites.net/markets/5eb7cb1e380e65004468f4b1"}}}, {"type": "Feature", "geometry": {"type": "Point", "coordinates": [144.777165, -37.875066]}, "properties": {"_id": "5eb7cb1e380e65004468f4b2", "name": "Laverton Rubble & Riches Market", "address": "8-18 Leakes Road", "suburb": "Laverton", "postcode": 3028, "state": "VIC", "business_category": "Market", "lga": "Wyndham ; Hobsons Bay", "region": "North and West Metropolitan Region", "lon": 144.777165, "lat": -37.875066, "request": {"type": "GET", "url": "https://gfood-api.azurewebsites.net/markets/5eb7cb1e380e65004468f4b2"}}}, {"type": "Feature", "geometry": {"type": "Point", "coordinates": [145.36318500000002, -37.759153999999995]}, "properties": {"_id": "5eb7cb1f380e65004468f4b3", "name": "Lilydale Market", "address": "45 Huchinson Street", "suburb": "Lilydale", "postcode": 3140, "state": "VIC", "business_category": "Market", "lga": "Yarra Ranges", "region": "Eastern Metron", "lon": 145.36318500000002, "lat": -37.759153999999995, "request": {"type": "GET", "url": "https://gfood-api.azurewebsites.net/markets/5eb7cb1f380e65004468f4b3"}}}, {"type": "Feature", "geometry": {"type": "Point", "coordinates": [147.084398, -38.035548]}, "properties": {"_id": "5eb7cb1f380e65004468f4b4", "name": "Loch Sport Health Centre Auxiliary Market", "address": "Community Hall", "suburb": "Loch Sport", "postcode": 3851, "state": "VIC", "business_category": "Market", "lga": "Wellington", "region": "Gippsland", "lon": 147.084398, "lat": -38.035548, "request": {"type": "GET", "url": "https://gfood-api.azurewebsites.net/markets/5eb7cb1f380e65004468f4b4"}}}, {"type": "Feature", "geometry": {"type": "Point", "coordinates": [145.697053, -38.381582]}, "properties": {"_id": "5eb7cb20380e65004468f4b5", "name": "Loch Village Market", "address": "Loch Village Railway Siding", "suburb": "Loch", "postcode": 3945, "state": "VIC", "business_category": "Market", "lga": "South Gippsland", "region": "Gippsland", "lon": 145.697053, "lat": -38.381582, "request": {"type": "GET", "url": "https://gfood-api.azurewebsites.net/markets/5eb7cb20380e65004468f4b5"}}}, {"type": "Feature", "geometry": {"type": "Point", "coordinates": [145.787991, -38.043541999999995]}, "properties": {"_id": "5eb7cb21380e65004468f4b7", "name": "Longwarry Market", "address": "Longwarry Fire Station", "suburb": "Longwarry", "postcode": 3816, "state": "VIC", "business_category": "Market", "lga": null, "region": null, "lon": 145.787991, "lat": -38.043541999999995, "request": {"type": "GET", "url": "https://gfood-api.azurewebsites.net/markets/5eb7cb21380e65004468f4b7"}}}, {"type": "Feature", "geometry": {"type": "Point", "coordinates": [147.561112, -37.670456]}, "properties": {"_id": "5eb7cb21380e65004468f4b8", "name": "Lucknow Primary School Sunday Market", "address": "Howitt Park", "suburb": "Bairnsdale", "postcode": 3875, "state": "VIC", "business_category": "Market", "lga": "East Gippsland", "region": "Gippsland", "lon": 147.561112, "lat": -37.670456, "request": {"type": "GET", "url": "https://gfood-api.azurewebsites.net/markets/5eb7cb21380e65004468f4b8"}}}, {"type": "Feature", "geometry": {"type": "Point", "coordinates": [146.253268, -37.202634]}, "properties": {"_id": "5eb7cb22380e65004468f4b9", "name": "Mansfield Bush Market", "address": "Highett Street", "suburb": "Mansfield", "postcode": 3722, "state": "VIC", "business_category": "Market", "lga": "Yarra Ranges , Delatite", "region": "Hume", "lon": 146.253268, "lat": -37.202634, "request": {"type": "GET", "url": "https://gfood-api.azurewebsites.net/markets/5eb7cb22380e65004468f4b9"}}}, {"type": "Feature", "geometry": {"type": "Point", "coordinates": [143.841414, -37.019811]}, "properties": {"_id": "5eb7cb22380e65004468f4ba", "name": "Maryborough Sunday Tourist Market", "address": "Carisbrook Trotting Complex", "suburb": "Carisbrook", "postcode": 3464, "state": "VIC", "business_category": "Market", "lga": "Central Goldfields", "region": "Loddon-Mallee", "lon": 143.841414, "lat": -37.019811, "request": {"type": "GET", "url": "https://gfood-api.azurewebsites.net/markets/5eb7cb22380e65004468f4ba"}}}, {"type": "Feature", "geometry": {"type": "Point", "coordinates": [145.784751, -37.539266999999995]}, "properties": {"_id": "5eb7cb22380e65004468f4bb", "name": "Marysville Community Market", "address": "Visitor Information Centre car park", "suburb": "Marysville", "postcode": 3779, "state": "VIC", "business_category": "Market", "lga": null, "region": null, "lon": 145.784751, "lat": -37.539266999999995, "request": {"type": "GET", "url": "https://gfood-api.azurewebsites.net/markets/5eb7cb22380e65004468f4bb"}}}, {"type": "Feature", "geometry": {"type": "Point", "coordinates": [144.949592, -37.810871]}, "properties": {"_id": "5eb7cb23380e65004468f4bc", "name": "Melbourne Markets", "address": "Box 1, 542 Footscray Road", "suburb": "West Melbourne", "postcode": 3003, "state": "VIC", "business_category": "Market", "lga": "Melbourne", "region": "North and West Metropolitan Region", "lon": 144.949592, "lat": -37.810871, "request": {"type": "GET", "url": "https://gfood-api.azurewebsites.net/markets/5eb7cb23380e65004468f4bc"}}}, {"type": "Feature", "geometry": {"type": "Point", "coordinates": [144.956776, -37.817403000000006]}, "properties": {"_id": "5eb7cb23380e65004468f4bd", "name": "Melbourne University Student Union Market", "address": "North Court, off Tin Alley", "suburb": "Melbourne", "postcode": 3000, "state": "VIC", "business_category": "Market", "lga": "Melbourne", "region": "North and West Metropolitan Region", "lon": 144.956776, "lat": -37.817403000000006, "request": {"type": "GET", "url": "https://gfood-api.azurewebsites.net/markets/5eb7cb23380e65004468f4bd"}}}, {"type": "Feature", "geometry": {"type": "Point", "coordinates": [144.5462424, -37.65724033]}, "properties": {"_id": "5eb7cb24380e65004468f4be", "name": "Melton Sunday Market", "address": "Secondary College", "suburb": "Melton", "postcode": 3337, "state": "VIC", "business_category": "Market", "lga": "Wyndham (C); Melton (S)", "region": "North and West Metropolitan Region", "lon": 144.5462424, "lat": -37.65724033, "request": {"type": "GET", "url": "https://gfood-api.azurewebsites.net/markets/5eb7cb24380e65004468f4be"}}}, {"type": "Feature", "geometry": {"type": "Point", "coordinates": [145.06735600000002, -37.985059]}, "properties": {"_id": "5eb7cb24380e65004468f4bf", "name": "Mentone Sunday Market", "address": "Florence St car park", "suburb": "Mentone", "postcode": 3194, "state": "VIC", "business_category": "Market", "lga": null, "region": null, "lon": 145.06735600000002, "lat": -37.985059, "request": {"type": "GET", "url": "https://gfood-api.azurewebsites.net/markets/5eb7cb24380e65004468f4bf"}}}, {"type": "Feature", "geometry": {"type": "Point", "coordinates": [145.25835, -37.972887]}, "properties": {"_id": "5eb7cb25380e65004468f4c0", "name": "Mildura City Heart Market", "address": "Langtree Mall", "suburb": "Mildura", "postcode": 3502, "state": "VIC", "business_category": "Market", "lga": "Mildura Rural", "region": "Loddon-Mallee", "lon": 145.25835, "lat": -37.972887, "request": {"type": "GET", "url": "https://gfood-api.azurewebsites.net/markets/5eb7cb25380e65004468f4c0"}}}, {"type": "Feature", "geometry": {"type": "Point", "coordinates": [144.85763799999998, -37.74107]}, "properties": {"_id": "5eb7cb25380e65004468f4c1", "name": "Milleara Shopping Centre Craft Market", "address": "Milleara Shopping Centre", "suburb": "Keilor East", "postcode": 3033, "state": "VIC", "business_category": "Market", "lga": "Moonee Valley", "region": "North and West Metropolitan Region", "lon": 144.85763799999998, "lat": -37.74107, "request": {"type": "GET", "url": "https://gfood-api.azurewebsites.net/markets/5eb7cb25380e65004468f4c1"}}}, {"type": "Feature", "geometry": {"type": "Point", "coordinates": [146.34293200000002, -37.978862]}, "properties": {"_id": "5eb7cb26380e65004468f4c2", "name": "Moe Craft Market", "address": "Gippsland Heritage Park", "suburb": "Moe", "postcode": 3825, "state": "VIC", "business_category": "Market", "lga": "La Trobe , Baw Baw", "region": "Gippsland", "lon": 146.34293200000002, "lat": -37.978862, "request": {"type": "GET", "url": "https://gfood-api.azurewebsites.net/markets/5eb7cb26380e65004468f4c2"}}}, {"type": "Feature", "geometry": {"type": "Point", "coordinates": [145.346621, -37.814771]}, "properties": {"_id": "5eb7cb26380e65004468f4c3", "name": "Montrose Craft Market", "address": "Town Centre", "suburb": "Montrose", "postcode": 3765, "state": "VIC", "business_category": "Market", "lga": "Yarra Ranges", "region": "Eastern Metro", "lon": 145.346621, "lat": -37.814771, "request": {"type": "GET", "url": "https://gfood-api.azurewebsites.net/markets/5eb7cb26380e65004468f4c3"}}}, {"type": "Feature", "geometry": {"type": "Point", "coordinates": [143.230699, -36.688551000000004]}, "properties": {"_id": "5eb7cb27380e65004468f4c4", "name": "Moonambel Market", "address": "Moonambel Reserve", "suburb": "Moonambel", "postcode": 3478, "state": "VIC", "business_category": "Market", "lga": null, "region": null, "lon": 143.230699, "lat": -36.688551000000004, "request": {"type": "GET", "url": "https://gfood-api.azurewebsites.net/markets/5eb7cb27380e65004468f4c4"}}}, {"type": "Feature", "geometry": {"type": "Point", "coordinates": [144.922995, -37.766184]}, "properties": {"_id": "5eb7cb28380e65004468f4c5", "name": "Moonee Ponds Craft Market", "address": "Celebrity Room", "suburb": "Moonee Ponds", "postcode": 3039, "state": "VIC", "business_category": "Market", "lga": "Moonee Valley", "region": "North and West Metropolitan Region", "lon": 144.922995, "lat": -37.766184, "request": {"type": "GET", "url": "https://gfood-api.azurewebsites.net/markets/5eb7cb28380e65004468f4c5"}}}, {"type": "Feature", "geometry": {"type": "Point", "coordinates": [145.04950300000002, -38.230038]}, "properties": {"_id": "5eb7cb28380e65004468f4c6", "name": "Mornington Racecourse Market", "address": "Mornington Racecourse", "suburb": "Mornington", "postcode": 3931, "state": "VIC", "business_category": "Market", "lga": "Mornington Peninsula (S)", "region": "Southern Metropolitan Region", "lon": 145.04950300000002, "lat": -38.230038, "request": {"type": "GET", "url": "https://gfood-api.azurewebsites.net/markets/5eb7cb28380e65004468f4c6"}}}, {"type": "Feature", "geometry": {"type": "Point", "coordinates": [145.04950300000002, -38.230038]}, "properties": {"_id": "5eb7cb29380e65004468f4c7", "name": "Mornington Village Shopping Centre Indoor Market", "address": "Mornington Village Shopping Centre", "suburb": "Mornington", "postcode": 3931, "state": "VIC", "business_category": "Market", "lga": "Mornington Peninsula", "region": "Southern Metro", "lon": 145.04950300000002, "lat": -38.230038, "request": {"type": "GET", "url": "https://gfood-api.azurewebsites.net/markets/5eb7cb29380e65004468f4c7"}}}, {"type": "Feature", "geometry": {"type": "Point", "coordinates": [145.04950300000002, -38.230038]}, "properties": {"_id": "5eb7cb29380e65004468f4c8", "name": "Mornington Wednesday Market", "address": "Main Street", "suburb": "Mornington", "postcode": 3931, "state": "VIC", "business_category": "Market", "lga": "Mornington Peninsula", "region": "Southern Metro", "lon": 145.04950300000002, "lat": -38.230038, "request": {"type": "GET", "url": "https://gfood-api.azurewebsites.net/markets/5eb7cb29380e65004468f4c8"}}}, {"type": "Feature", "geometry": {"type": "Point", "coordinates": [147.299257, -36.844307]}, "properties": {"_id": "5eb7cb2a380e65004468f4c9", "name": "Mount Beauty Community Market", "address": "Next to Community Centre", "suburb": "Mount Beauty", "postcode": 3699, "state": "VIC", "business_category": "Market", "lga": "Alpine (S)", "region": "Hume Region", "lon": 147.299257, "lat": -36.844307, "request": {"type": "GET", "url": "https://gfood-api.azurewebsites.net/markets/5eb7cb2a380e65004468f4c9"}}}, {"type": "Feature", "geometry": {"type": "Point", "coordinates": [145.168834, -37.914383]}, "properties": {"_id": "5eb7cb2a380e65004468f4ca", "name": "Mount Street Art & Craft Market", "address": "Mount Street Neighbourhood House", "suburb": "Glen Waverley", "postcode": 3150, "state": "VIC", "business_category": "Market", "lga": "Monash", "region": "Eastern Metro", "lon": 145.168834, "lat": -37.914383, "request": {"type": "GET", "url": "https://gfood-api.azurewebsites.net/markets/5eb7cb2a380e65004468f4ca"}}}, {"type": "Feature", "geometry": {"type": "Point", "coordinates": [145.128118, -37.880748]}, "properties": {"_id": "5eb7cb2b380e65004468f4cb", "name": "Mount Waverley Rotary Club Village Market", "address": "Mt Waverley Village Shopping Centre", "suburb": "Mount Waverley", "postcode": 3149, "state": "VIC", "business_category": "Market", "lga": "Monash", "region": "Eastern Metro", "lon": 145.128118, "lat": -37.880748, "request": {"type": "GET", "url": "https://gfood-api.azurewebsites.net/markets/5eb7cb2b380e65004468f4cb"}}}, {"type": "Feature", "geometry": {"type": "Point", "coordinates": [146.82759, -36.554037]}, "properties": {"_id": "5eb7cb2b380e65004468f4cc", "name": "Myrtleford Bush Market", "address": "St Paul's Anglican Church grounds", "suburb": "Myrtleford", "postcode": 3737, "state": "VIC", "business_category": "Market", "lga": null, "region": null, "lon": 146.82759, "lat": -36.554037, "request": {"type": "GET", "url": "https://gfood-api.azurewebsites.net/markets/5eb7cb2b380e65004468f4cc"}}}, {"type": "Feature", "geometry": {"type": "Point", "coordinates": [145.095753, -36.740713]}, "properties": {"_id": "5eb7cb2c380e65004468f4cd", "name": "Nagambie Lakes Community Market", "address": "High Street", "suburb": "Nagambie", "postcode": 3608, "state": "VIC", "business_category": "Market", "lga": "Strathbogie", "region": "Hume", "lon": 145.095753, "lat": -36.740713, "request": {"type": "GET", "url": "https://gfood-api.azurewebsites.net/markets/5eb7cb2c380e65004468f4cd"}}}, {"type": "Feature", "geometry": {"type": "Point", "coordinates": [144.948039, -37.814719000000004]}, "properties": {"_id": "5eb7cb2c380e65004468f4ce", "name": "New Quay Market", "address": "New Quay", "suburb": "Docklands", "postcode": 3008, "state": "VIC", "business_category": "Market", "lga": null, "region": null, "lon": 144.948039, "lat": -37.814719000000004, "request": {"type": "GET", "url": "https://gfood-api.azurewebsites.net/markets/5eb7cb2c380e65004468f4ce"}}}, {"type": "Feature", "geometry": {"type": "Point", "coordinates": [144.05361100000002, -37.083560999999996]}, "properties": {"_id": "5eb7cb2d380e65004468f4cf", "name": "Newstead Market", "address": "Rotunda Park", "suburb": "Newstead", "postcode": 3462, "state": "VIC", "business_category": "Market", "lga": "Mount Alexander", "region": "Loddon-Mallee", "lon": 144.05361100000002, "lat": -37.083560999999996, "request": {"type": "GET", "url": "https://gfood-api.azurewebsites.net/markets/5eb7cb2d380e65004468f4cf"}}}, {"type": "Feature", "geometry": {"type": "Point", "coordinates": [145.479471, -36.093878000000004]}, "properties": {"_id": "5eb7cb2d380e65004468f4d0", "name": "Numurkah Lions Broken Creek Market", "address": "South side of Broken Creek", "suburb": "Numurkah", "postcode": 3636, "state": "VIC", "business_category": "Market", "lga": "Moira", "region": "Hume", "lon": 145.479471, "lat": -36.093878000000004, "request": {"type": "GET", "url": "https://gfood-api.azurewebsites.net/markets/5eb7cb2d380e65004468f4d0"}}}, {"type": "Feature", "geometry": {"type": "Point", "coordinates": [145.174489, -37.817797999999996]}, "properties": {"_id": "5eb7cb2e380e65004468f4d1", "name": "Nunawading Art & Craft Market", "address": "In front of Whitehorse Civic Centre", "suburb": "Nunawading", "postcode": 3131, "state": "VIC", "business_category": "Market", "lga": "Whitehorse", "region": "Eastern Metro", "lon": 145.174489, "lat": -37.817797999999996, "request": {"type": "GET", "url": "https://gfood-api.azurewebsites.net/markets/5eb7cb2e380e65004468f4d1"}}}, {"type": "Feature", "geometry": {"type": "Point", "coordinates": [143.346028, -35.138155]}, "properties": {"_id": "5eb7cb2e380e65004468f4d2", "name": "Nyah Lions Market", "address": "Nyah Trotting Complex", "suburb": "Nyah", "postcode": 3594, "state": "VIC", "business_category": "Market", "lga": null, "region": null, "lon": 143.346028, "lat": -35.138155, "request": {"type": "GET", "url": "https://gfood-api.azurewebsites.net/markets/5eb7cb2e380e65004468f4d2"}}}, {"type": "Feature", "geometry": {"type": "Point", "coordinates": [145.089719, -37.902805]}, "properties": {"_id": "5eb7cb2f380e65004468f4d3", "name": "Oakleigh Rotary Market", "address": "Hanover Street Carpark", "suburb": "Oakleigh", "postcode": 3166, "state": "VIC", "business_category": "Market", "lga": "Monash", "region": "Eastern Metro", "lon": 145.089719, "lat": -37.902805, "request": {"type": "GET", "url": "https://gfood-api.azurewebsites.net/markets/5eb7cb2f380e65004468f4d3"}}}, {"type": "Feature", "geometry": {"type": "Point", "coordinates": [144.523761, -38.263811]}, "properties": {"_id": "5eb7cb2f380e65004468f4d4", "name": "Ocean Grove Craft Market", "address": "Kingston Park", "suburb": "Ocean Grove", "postcode": 3226, "state": "VIC", "business_category": "Market", "lga": "Greater Geelong (C)", "region": "Barwon South Western Region", "lon": 144.523761, "lat": -38.263811, "request": {"type": "GET", "url": "https://gfood-api.azurewebsites.net/markets/5eb7cb2f380e65004468f4d4"}}}, {"type": "Feature", "geometry": {"type": "Point", "coordinates": [146.482439, -36.68892]}, "properties": {"_id": "5eb7cb30380e65004468f4d5", "name": "Oxley Bush Market", "address": "Oxley Shire Hall", "suburb": "Oxley", "postcode": 3678, "state": "VIC", "business_category": "Market", "lga": null, "region": null, "lon": 146.482439, "lat": -36.68892, "request": {"type": "GET", "url": "https://gfood-api.azurewebsites.net/markets/5eb7cb30380e65004468f4d5"}}}, {"type": "Feature", "geometry": {"type": "Point", "coordinates": [144.285267, -36.764269]}, "properties": {"_id": "5eb7cb30380e65004468f4d6", "name": "Pall Mall Art & Craft Market", "address": "Pall Mall", "suburb": "Bendigo", "postcode": 3550, "state": "VIC", "business_category": "Market", "lga": "Greater Bendigo", "region": "Loddon-Mallee", "lon": 144.285267, "lat": -36.764269, "request": {"type": "GET", "url": "https://gfood-api.azurewebsites.net/markets/5eb7cb30380e65004468f4d6"}}}, {"type": "Feature", "geometry": {"type": "Point", "coordinates": [145.13411100000002, -38.072748]}, "properties": {"_id": "5eb7cb31380e65004468f4d7", "name": "Patterson Lakes Christmas Craft Market", "address": "Patterson Lakes Community Centre", "suburb": "Patterson Lakes", "postcode": 3197, "state": "VIC", "business_category": "Market", "lga": "Kingston", "region": "Southern Metro", "lon": 145.13411100000002, "lat": -38.072748, "request": {"type": "GET", "url": "https://gfood-api.azurewebsites.net/markets/5eb7cb31380e65004468f4d7"}}}, {"type": "Feature", "geometry": {"type": "Point", "coordinates": [147.727389, -37.914728000000004]}, "properties": {"_id": "5eb7cb31380e65004468f4d8", "name": "Paynesville Market", "address": "Gilsenan Reserve", "suburb": "Paynesville", "postcode": 3880, "state": "VIC", "business_category": "Market", "lga": "East Gippsland", "region": "Gippsland", "lon": 147.727389, "lat": -37.914728000000004, "request": {"type": "GET", "url": "https://gfood-api.azurewebsites.net/markets/5eb7cb31380e65004468f4d8"}}}, {"type": "Feature", "geometry": {"type": "Point", "coordinates": [144.964524, -37.739901]}, "properties": {"_id": "5eb7cb32380e65004468f4d9", "name": "Pentridge Piazza Market", "address": "Pentridge Piazza", "suburb": "Coburg", "postcode": 3058, "state": "VIC", "business_category": "Market", "lga": "Moreland", "region": "North and West Metropolitan Region", "lon": 144.964524, "lat": -37.739901, "request": {"type": "GET", "url": "https://gfood-api.azurewebsites.net/markets/5eb7cb32380e65004468f4d9"}}}, {"type": "Feature", "geometry": {"type": "Point", "coordinates": [144.956763, -37.666265]}, "properties": {"_id": "5eb7cb32380e65004468f4da", "name": "Pipeworks Market", "address": "400 Mahoneys Road", "suburb": "Campbellfield", "postcode": 3061, "state": "VIC", "business_category": "Market", "lga": "Hume", "region": "North and West Metropolitan Region", "lon": 144.956763, "lat": -37.666265, "request": {"type": "GET", "url": "https://gfood-api.azurewebsites.net/markets/5eb7cb32380e65004468f4da"}}}, {"type": "Feature", "geometry": {"type": "Point", "coordinates": [143.864505, -37.571940999999995]}, "properties": {"_id": "5eb7cb33380e65004468f4db", "name": "Pleasant Street Craft Market", "address": "Pleasant Street Primary School", "suburb": "Ballarat", "postcode": 3350, "state": "VIC", "business_category": "Market", "lga": "Ballarat", "region": "Grampians", "lon": 143.864505, "lat": -37.571940999999995, "request": {"type": "GET", "url": "https://gfood-api.azurewebsites.net/markets/5eb7cb33380e65004468f4db"}}}, {"type": "Feature", "geometry": {"type": "Point", "coordinates": [144.64209, -37.91624]}, "properties": {"_id": "5eb7cb33380e65004468f4dc", "name": "Point Cook Community Market", "address": "Jamieson Way Community Centre", "suburb": "Point Cook", "postcode": 3030, "state": "VIC", "business_category": "Market", "lga": null, "region": null, "lon": 144.64209, "lat": -37.91624, "request": {"type": "GET", "url": "https://gfood-api.azurewebsites.net/markets/5eb7cb33380e65004468f4dc"}}}, {"type": "Feature", "geometry": {"type": "Point", "coordinates": [144.614191, -38.271074]}, "properties": {"_id": "5eb7cb34380e65004468f4dd", "name": "Point Lonsdale Primary School Market", "address": "Point Lonsdale Primary School", "suburb": "Point Lonsdale", "postcode": 3225, "state": "VIC", "business_category": "Market", "lga": "Queenscliffe (b)", "region": "Barwon S/W", "lon": 144.614191, "lat": -38.271074, "request": {"type": "GET", "url": "https://gfood-api.azurewebsites.net/markets/5eb7cb34380e65004468f4dd"}}}, {"type": "Feature", "geometry": {"type": "Point", "coordinates": [142.7154, -36.988914]}, "properties": {"_id": "5eb7cb34380e65004468f4de", "name": "Pomonal Village Market", "address": "Ararat-Halls Gap Road", "suburb": "Pomonal", "postcode": 3381, "state": "VIC", "business_category": "Market", "lga": "Ararat Rural", "region": "Grampians", "lon": 142.7154, "lat": -36.988914, "request": {"type": "GET", "url": "https://gfood-api.azurewebsites.net/markets/5eb7cb34380e65004468f4de"}}}, {"type": "Feature", "geometry": {"type": "Point", "coordinates": [146.815723, -38.631941999999995]}, "properties": {"_id": "5eb7cb35380e65004468f4df", "name": "Port Albert Market", "address": "Mechanics Hall", "suburb": "Port Albert", "postcode": 3971, "state": "VIC", "business_category": "Market", "lga": null, "region": null, "lon": 146.815723, "lat": -38.631941999999995, "request": {"type": "GET", "url": "https://gfood-api.azurewebsites.net/markets/5eb7cb35380e65004468f4df"}}}, {"type": "Feature", "geometry": {"type": "Point", "coordinates": [143.17711599999998, -38.660637]}, "properties": {"_id": "5eb7cb35380e65004468f4e0", "name": "Port Campbell Summer Market", "address": "Across the road from beach (next to the tennis courts)", "suburb": "Port Campbell", "postcode": 3269, "state": "VIC", "business_category": "Market", "lga": "Colac-otway , Corangamite", "region": "Barwon S/W", "lon": 143.17711599999998, "lat": -38.660637, "request": {"type": "GET", "url": "https://gfood-api.azurewebsites.net/markets/5eb7cb35380e65004468f4e0"}}}, {"type": "Feature", "geometry": {"type": "Point", "coordinates": [142.11926599999998, -38.270398]}, "properties": {"_id": "5eb7cb36380e65004468f4e1", "name": "Port Fairy Craft Market", "address": "Village Green", "suburb": "Port Fairy", "postcode": 3284, "state": "VIC", "business_category": "Market", "lga": "Moyne", "region": "Barwon S/W", "lon": 142.11926599999998, "lat": -38.270398, "request": {"type": "GET", "url": "https://gfood-api.azurewebsites.net/markets/5eb7cb36380e65004468f4e1"}}}, {"type": "Feature", "geometry": {"type": "Point", "coordinates": [144.6217267, -38.13622989]}, "properties": {"_id": "5eb7cb36380e65004468f4e2", "name": "Portarlington Sunday Market", "address": "Parks Hall", "suburb": "Portarlington", "postcode": 3223, "state": "VIC", "business_category": "Market", "lga": "Greater Geelong", "region": "Barwon S/W", "lon": 144.6217267, "lat": -38.13622989, "request": {"type": "GET", "url": "https://gfood-api.azurewebsites.net/markets/5eb7cb36380e65004468f4e2"}}}, {"type": "Feature", "geometry": {"type": "Point", "coordinates": [141.437227, -38.235475]}, "properties": {"_id": "5eb7cb37380e65004468f4e3", "name": "Portland Angling Club Sunday Market", "address": "Foreshore", "suburb": "Portland", "postcode": 3305, "state": "VIC", "business_category": "Market", "lga": "Glenelg", "region": "Barwon S/W", "lon": 141.437227, "lat": -38.235475, "request": {"type": "GET", "url": "https://gfood-api.azurewebsites.net/markets/5eb7cb37380e65004468f4e3"}}}, {"type": "Feature", "geometry": {"type": "Point", "coordinates": [141.437227, -38.235475]}, "properties": {"_id": "5eb7cb38380e65004468f4e4", "name": "Portland Wischmans Market", "address": "Gorae Road", "suburb": "Gorae", "postcode": 3305, "state": "VIC", "business_category": "Market", "lga": null, "region": null, "lon": 141.437227, "lat": -38.235475, "request": {"type": "GET", "url": "https://gfood-api.azurewebsites.net/markets/5eb7cb38380e65004468f4e4"}}}, {"type": "Feature", "geometry": {"type": "Point", "coordinates": [145.005702, -37.742470000000004]}, "properties": {"_id": "5eb7cb38380e65004468f4e5", "name": "Preston Market", "address": "The Centreway", "suburb": "Preston", "postcode": 3072, "state": "VIC", "business_category": "Market", "lga": "Darebin", "region": "North and West Metropolitan Region", "lon": 145.005702, "lat": -37.742470000000004, "request": {"type": "GET", "url": "https://gfood-api.azurewebsites.net/markets/5eb7cb38380e65004468f4e5"}}}, {"type": "Feature", "geometry": {"type": "Point", "coordinates": [145.403176, -36.380853]}, "properties": {"_id": "5eb7cb39380e65004468f4e6", "name": "Queens Gardens Craft and Produce Market", "address": "Queens Gardens", "suburb": "Shepparton", "postcode": 3630, "state": "VIC", "business_category": "Market", "lga": "Greater Shepparton", "region": "Hume", "lon": 145.403176, "lat": -36.380853, "request": {"type": "GET", "url": "https://gfood-api.azurewebsites.net/markets/5eb7cb39380e65004468f4e6"}}}, {"type": "Feature", "geometry": {"type": "Point", "coordinates": [144.614191, -38.271074]}, "properties": {"_id": "5eb7cb39380e65004468f4e7", "name": "Queenscliff Community Market", "address": "Lower Princess Park", "suburb": "Queenscliff", "postcode": 3225, "state": "VIC", "business_category": "Market", "lga": "Queenscliffe (b)", "region": "Barwon S/W", "lon": 144.614191, "lat": -38.271074, "request": {"type": "GET", "url": "https://gfood-api.azurewebsites.net/markets/5eb7cb39380e65004468f4e7"}}}, {"type": "Feature", "geometry": {"type": "Point", "coordinates": [145.945214, -37.919937]}, "properties": {"_id": "5eb7cb3a380e65004468f4e8", "name": "Rokeby Community Market", "address": "Rokeby Hall & Reserve", "suburb": "Rokeby", "postcode": 3821, "state": "VIC", "business_category": "Market", "lga": null, "region": null, "lon": 145.945214, "lat": -37.919937, "request": {"type": "GET", "url": "https://gfood-api.azurewebsites.net/markets/5eb7cb3a380e65004468f4e8"}}}, {"type": "Feature", "geometry": {"type": "Point", "coordinates": [144.977795, -37.802608]}, "properties": {"_id": "5eb7cb3a380e65004468f4e9", "name": "Rose Street Artists' Market", "address": "60 Rose St", "suburb": "Fitzroy", "postcode": 3065, "state": "VIC", "business_category": "Market", "lga": null, "region": null, "lon": 144.977795, "lat": -37.802608, "request": {"type": "GET", "url": "https://gfood-api.azurewebsites.net/markets/5eb7cb3a380e65004468f4e9"}}}, {"type": "Feature", "geometry": {"type": "Point", "coordinates": [144.900413, -38.42776]}, "properties": {"_id": "5eb7cb3b380e65004468f4ea", "name": "Rosebud Community Market", "address": "Rosebud Primary School", "suburb": "Rosebud", "postcode": 3939, "state": "VIC", "business_category": "Market", "lga": "Mornington Peninsula", "region": "Southern Metro", "lon": 144.900413, "lat": -38.42776, "request": {"type": "GET", "url": "https://gfood-api.azurewebsites.net/markets/5eb7cb3b380e65004468f4ea"}}}, {"type": "Feature", "geometry": {"type": "Point", "coordinates": [146.772991, -38.166213]}, "properties": {"_id": "5eb7cb3b380e65004468f4eb", "name": "Rosedale Monthly Market", "address": "Prince Street Reserve", "suburb": "Rosedale", "postcode": 3847, "state": "VIC", "business_category": "Market", "lga": "Wellington", "region": "Gippsland", "lon": 146.772991, "lat": -38.166213, "request": {"type": "GET", "url": "https://gfood-api.azurewebsites.net/markets/5eb7cb3b380e65004468f4eb"}}}, {"type": "Feature", "geometry": {"type": "Point", "coordinates": [144.956776, -37.817403000000006]}, "properties": {"_id": "5eb7cb3c380e65004468f4ec", "name": "Rural Christmas Market", "address": "Information Victoria Bookshop", "suburb": "Melbourne", "postcode": 3000, "state": "VIC", "business_category": "Market", "lga": "Melbourne", "region": "North and West Metropolitan Region", "lon": 144.956776, "lat": -37.817403000000006, "request": {"type": "GET", "url": "https://gfood-api.azurewebsites.net/markets/5eb7cb3c380e65004468f4ec"}}}, {"type": "Feature", "geometry": {"type": "Point", "coordinates": [145.019312, -36.575936]}, "properties": {"_id": "5eb7cb3c380e65004468f4ed", "name": "Rushworth Market", "address": "High Street", "suburb": "Rushworth", "postcode": 3612, "state": "VIC", "business_category": "Market", "lga": "Greater Shepparton , Campaspe", "region": "Loddon-Mallee, Hume", "lon": 145.019312, "lat": -36.575936, "request": {"type": "GET", "url": "https://gfood-api.azurewebsites.net/markets/5eb7cb3c380e65004468f4ed"}}}, {"type": "Feature", "geometry": {"type": "Point", "coordinates": [144.827203, -38.396077000000005]}, "properties": {"_id": "5eb7cb3d380e65004468f4ee", "name": "Rye Foreshore Market", "address": "Rye Foreshore", "suburb": "Rye", "postcode": 3941, "state": "VIC", "business_category": "Market", "lga": "Mornington Peninsula", "region": "Southern Metro", "lon": 144.827203, "lat": -38.396077000000005, "request": {"type": "GET", "url": "https://gfood-api.azurewebsites.net/markets/5eb7cb3d380e65004468f4ee"}}}, {"type": "Feature", "geometry": {"type": "Point", "coordinates": [147.106181, -38.224191]}, "properties": {"_id": "5eb7cb3d380e65004468f4ef", "name": "Sale Sunday Charity Variety Market", "address": "Thompson River Canal Reserve", "suburb": "Sale", "postcode": 3850, "state": "VIC", "business_category": "Market", "lga": "Wellington", "region": "Gippsland", "lon": 147.106181, "lat": -38.224191, "request": {"type": "GET", "url": "https://gfood-api.azurewebsites.net/markets/5eb7cb3d380e65004468f4ef"}}}, {"type": "Feature", "geometry": {"type": "Point", "coordinates": [145.013472, -37.956585]}, "properties": {"_id": "5eb7cb3e380e65004468f4f0", "name": "Sandringham Village Craft Market", "address": "Masonic Hall", "suburb": "Sandringham", "postcode": 3191, "state": "VIC", "business_category": "Market", "lga": "Bayside", "region": "Southern Metro", "lon": 145.013472, "lat": -37.956585, "request": {"type": "GET", "url": "https://gfood-api.azurewebsites.net/markets/5eb7cb3e380e65004468f4f0"}}}, {"type": "Feature", "geometry": {"type": "Point", "coordinates": [145.603242, -36.544462]}, "properties": {"_id": "5eb7cb3e380e65004468f4f1", "name": "Shepparton Bush Market", "address": "Maude Street Mall", "suburb": "Shepparton", "postcode": 3632, "state": "VIC", "business_category": "Market", "lga": "Greater Shepparton", "region": "Hume", "lon": 145.603242, "lat": -36.544462, "request": {"type": "GET", "url": "https://gfood-api.azurewebsites.net/markets/5eb7cb3e380e65004468f4f1"}}}, {"type": "Feature", "geometry": {"type": "Point", "coordinates": [145.403176, -36.380853]}, "properties": {"_id": "5eb7cb3f380e65004468f4f2", "name": "Shepparton Craft and Produce Market", "address": "Queens Gardens", "suburb": "Shepparton", "postcode": 3630, "state": "VIC", "business_category": "Market", "lga": null, "region": null, "lon": 145.403176, "lat": -36.380853, "request": {"type": "GET", "url": "https://gfood-api.azurewebsites.net/markets/5eb7cb3f380e65004468f4f2"}}}, {"type": "Feature", "geometry": {"type": "Point", "coordinates": [145.603242, -36.544462]}, "properties": {"_id": "5eb7cb3f380e65004468f4f3", "name": "Shepparton Treasure Market", "address": "Twilight Drive-in", "suburb": "Shepparton", "postcode": 3632, "state": "VIC", "business_category": "Market", "lga": "Greater Shepparton", "region": "Hume", "lon": 145.603242, "lat": -36.544462, "request": {"type": "GET", "url": "https://gfood-api.azurewebsites.net/markets/5eb7cb3f380e65004468f4f3"}}}, {"type": "Feature", "geometry": {"type": "Point", "coordinates": [145.227373, -38.217991]}, "properties": {"_id": "5eb7cb40380e65004468f4f4", "name": "Somerville Market", "address": "St Andrews Anglican Church", "suburb": "Somerville", "postcode": 3912, "state": "VIC", "business_category": "Market", "lga": "Mornington Peninsula , Frankston , Casey", "region": "Southern Metro", "lon": 145.227373, "lat": -38.217991, "request": {"type": "GET", "url": "https://gfood-api.azurewebsites.net/markets/5eb7cb40380e65004468f4f4"}}}, {"type": "Feature", "geometry": {"type": "Point", "coordinates": [144.998203, -37.803515000000004]}, "properties": {"_id": "5eb7cb40380e65004468f4f5", "name": "Sophia Mundi Community School Market", "address": "School Grounds", "suburb": "Abbotsford", "postcode": 3067, "state": "VIC", "business_category": "Market", "lga": "Yarra", "region": "North and West Metropolitan Region", "lon": 144.998203, "lat": -37.803515000000004, "request": {"type": "GET", "url": "https://gfood-api.azurewebsites.net/markets/5eb7cb40380e65004468f4f5"}}}, {"type": "Feature", "geometry": {"type": "Point", "coordinates": [145.292381, -37.585625]}, "properties": {"_id": "5eb7cb41380e65004468f4f6", "name": "St Andrews Market", "address": "Main Road (opposite hotel)", "suburb": "St Andrews", "postcode": 3761, "state": "VIC", "business_category": "Market", "lga": null, "region": null, "lon": 145.292381, "lat": -37.585625, "request": {"type": "GET", "url": "https://gfood-api.azurewebsites.net/markets/5eb7cb41380e65004468f4f6"}}}, {"type": "Feature", "geometry": {"type": "Point", "coordinates": [144.308232, -37.573710999999996]}, "properties": {"_id": "5eb7cb41380e65004468f4f7", "name": "St Anne's Winery Craft Market", "address": "St Anne's Winery", "suburb": "Myrniong", "postcode": 3341, "state": "VIC", "business_category": "Market", "lga": null, "region": null, "lon": 144.308232, "lat": -37.573710999999996, "request": {"type": "GET", "url": "https://gfood-api.azurewebsites.net/markets/5eb7cb41380e65004468f4f7"}}}, {"type": "Feature", "geometry": {"type": "Point", "coordinates": [144.979478, -37.865322]}, "properties": {"_id": "5eb7cb42380e65004468f4f8", "name": "St Kilda Esplanade Market", "address": "Upper Esplanade", "suburb": "St Kilda", "postcode": 3182, "state": "VIC", "business_category": "Market", "lga": "Port Phillip", "region": "Southern Metro", "lon": 144.979478, "lat": -37.865322, "request": {"type": "GET", "url": "https://gfood-api.azurewebsites.net/markets/5eb7cb42380e65004468f4f8"}}}, {"type": "Feature", "geometry": {"type": "Point", "coordinates": [144.979478, -37.865322]}, "properties": {"_id": "5eb7cb42380e65004468f4f9", "name": "St Kilda Night Market", "address": "O'Donnell Gardens", "suburb": "St Kilda", "postcode": 3182, "state": "VIC", "business_category": "Market", "lga": "Port Phillip", "region": "Southern Metro", "lon": 144.979478, "lat": -37.865322, "request": {"type": "GET", "url": "https://gfood-api.azurewebsites.net/markets/5eb7cb42380e65004468f4f9"}}}, {"type": "Feature", "geometry": {"type": "Point", "coordinates": [144.6217267, -38.13622989]}, "properties": {"_id": "5eb7cb43380e65004468f4fa", "name": "St Leonards Market", "address": "Foreshore", "suburb": "St Leonards", "postcode": 3223, "state": "VIC", "business_category": "Market", "lga": "Greater Geelong", "region": "Barwon S/W", "lon": 144.6217267, "lat": -38.13622989, "request": {"type": "GET", "url": "https://gfood-api.azurewebsites.net/markets/5eb7cb43380e65004468f4fa"}}}, {"type": "Feature", "geometry": {"type": "Point", "coordinates": [142.771159, -37.0666]}, "properties": {"_id": "5eb7cb43380e65004468f4fb", "name": "Stawell S.E.S. Market", "address": "Drill Hall", "suburb": "Stawell", "postcode": 3380, "state": "VIC", "business_category": "Market", "lga": "Northern Grampians", "region": "Grampians", "lon": 142.771159, "lat": -37.0666, "request": {"type": "GET", "url": "https://gfood-api.azurewebsites.net/markets/5eb7cb43380e65004468f4fb"}}}, {"type": "Feature", "geometry": {"type": "Point", "coordinates": [144.34652, -38.157038]}, "properties": {"_id": "5eb7cb44380e65004468f4fc", "name": "Steampacket Gardens Art & Craft Market", "address": "Steampacket Gardens", "suburb": "Geelong", "postcode": 3220, "state": "VIC", "business_category": "Market", "lga": "Greater Geelong", "region": "Barwon S/W", "lon": 144.34652, "lat": -38.157038, "request": {"type": "GET", "url": "https://gfood-api.azurewebsites.net/markets/5eb7cb44380e65004468f4fc"}}}, {"type": "Feature", "geometry": {"type": "Point", "coordinates": [144.728973, -37.56762]}, "properties": {"_id": "5eb7cb44380e65004468f4fd", "name": "Sunbury Craft Market", "address": "Leisure Centre", "suburb": "Sunbury", "postcode": 3429, "state": "VIC", "business_category": "Market", "lga": "Melton ; Hume", "region": "North and West Metropolitan Region", "lon": 144.728973, "lat": -37.56762, "request": {"type": "GET", "url": "https://gfood-api.azurewebsites.net/markets/5eb7cb44380e65004468f4fd"}}}, {"type": "Feature", "geometry": {"type": "Point", "coordinates": [145.097236, -37.825173]}, "properties": {"_id": "5eb7cb45380e65004468f4fe", "name": "Surrey Hills Neighbourhood Centre Market", "address": "Neighbourhood Centre", "suburb": "Surrey Hills", "postcode": 3127, "state": "VIC", "business_category": "Market", "lga": "Whitehorse , Boroondara", "region": "Eastern Metro", "lon": 145.097236, "lat": -37.825173, "request": {"type": "GET", "url": "https://gfood-api.azurewebsites.net/markets/5eb7cb45380e65004468f4fe"}}}, {"type": "Feature", "geometry": {"type": "Point", "coordinates": [143.336906, -35.348388]}, "properties": {"_id": "5eb7cb45380e65004468f4ff", "name": "Swan Hill Rotary Club Country Market", "address": "Railway Station Carpark", "suburb": "Swan Hill", "postcode": 3585, "state": "VIC", "business_category": "Market", "lga": "Swan Hill Rural", "region": "Loddon-Mallee", "lon": 143.336906, "lat": -35.348388, "request": {"type": "GET", "url": "https://gfood-api.azurewebsites.net/markets/5eb7cb45380e65004468f4ff"}}}, {"type": "Feature", "geometry": {"type": "Point", "coordinates": [145.955341, -38.597018]}, "properties": {"_id": "5eb7cb46380e65004468f500", "name": "Tarwin Lower Market", "address": "Mechanics Institute Hall", "suburb": "Tarwin Lower", "postcode": 3956, "state": "VIC", "business_category": "Market", "lga": "South Gippsland", "region": "Gippsland", "lon": 145.955341, "lat": -38.597018, "request": {"type": "GET", "url": "https://gfood-api.azurewebsites.net/markets/5eb7cb46380e65004468f500"}}}, {"type": "Feature", "geometry": {"type": "Point", "coordinates": [145.12665, -37.91342]}, "properties": {"_id": "5eb7cb46380e65004468f501", "name": "The Campus Monash University Market", "address": "Between Campus Centre & Engineering Lawns", "suburb": "Clayton", "postcode": 3168, "state": "VIC", "business_category": "Market", "lga": "Monash", "region": "Eastern Metro", "lon": 145.12665, "lat": -37.91342, "request": {"type": "GET", "url": "https://gfood-api.azurewebsites.net/markets/5eb7cb46380e65004468f501"}}}, {"type": "Feature", "geometry": {"type": "Point", "coordinates": [144.991264, -37.840678999999994]}, "properties": {"_id": "5eb7cb47380e65004468f502", "name": "The Gardens Market", "address": "Observatory Gate, Royal Botanic Gardens", "suburb": "South Yarra", "postcode": 3141, "state": "VIC", "business_category": "Market", "lga": null, "region": null, "lon": 144.991264, "lat": -37.840678999999994, "request": {"type": "GET", "url": "https://gfood-api.azurewebsites.net/markets/5eb7cb47380e65004468f502"}}}, {"type": "Feature", "geometry": {"type": "Point", "coordinates": [144.998203, -37.803515000000004]}, "properties": {"_id": "5eb7cb47380e65004468f503", "name": "The Makers Bazaar", "address": "Abbotsford Convent", "suburb": "Abbotsford", "postcode": 3067, "state": "VIC", "business_category": "Market", "lga": null, "region": null, "lon": 144.998203, "lat": -37.803515000000004, "request": {"type": "GET", "url": "https://gfood-api.azurewebsites.net/markets/5eb7cb47380e65004468f503"}}}, {"type": "Feature", "geometry": {"type": "Point", "coordinates": [145.365993, -37.642852000000005]}, "properties": {"_id": "5eb7cb48380e65004468f504", "name": "The Market at Yarrawood", "address": "1275 Melba Hwy", "suburb": "Yarra Glen", "postcode": 3775, "state": "VIC", "business_category": "Market", "lga": null, "region": null, "lon": 145.365993, "lat": -37.642852000000005, "request": {"type": "GET", "url": "https://gfood-api.azurewebsites.net/markets/5eb7cb48380e65004468f504"}}}, {"type": "Feature", "geometry": {"type": "Point", "coordinates": [144.9520744, -37.82528675]}, "properties": {"_id": "5eb7cb48380e65004468f505", "name": "The Sunday Market", "address": "Victorian Arts Centre lawn & Concert Hall", "suburb": "Soutbank", "postcode": 3006, "state": "VIC", "business_category": "Market", "lga": null, "region": null, "lon": 144.9520744, "lat": -37.82528675, "request": {"type": "GET", "url": "https://gfood-api.azurewebsites.net/markets/5eb7cb48380e65004468f505"}}}, {"type": "Feature", "geometry": {"type": "Point", "coordinates": [145.006644, -37.684684000000004]}, "properties": {"_id": "5eb7cb49380e65004468f506", "name": "Thomastown Market", "address": "Wood Street", "suburb": "Thomastown", "postcode": 3074, "state": "VIC", "business_category": "Market", "lga": "Whittlesea", "region": "North and West Metropolitan Region", "lon": 145.006644, "lat": -37.684684000000004, "request": {"type": "GET", "url": "https://gfood-api.azurewebsites.net/markets/5eb7cb49380e65004468f506"}}}, {"type": "Feature", "geometry": {"type": "Point", "coordinates": [144.961183, -36.206055]}, "properties": {"_id": "5eb7cb49380e65004468f507", "name": "Tongala Market by the Murals", "address": "Tongala Shire Lawns", "suburb": "Tongala", "postcode": 3621, "state": "VIC", "business_category": "Market", "lga": "Campaspe", "region": "Loddon-Mallee", "lon": 144.961183, "lat": -36.206055, "request": {"type": "GET", "url": "https://gfood-api.azurewebsites.net/markets/5eb7cb49380e65004468f507"}}}, {"type": "Feature", "geometry": {"type": "Point", "coordinates": [146.359804, -38.60357]}, "properties": {"_id": "5eb7cb4a380e65004468f508", "name": "Toora Market", "address": "Former Bonlac Store", "suburb": "Toora", "postcode": 3962, "state": "VIC", "business_category": "Market", "lga": null, "region": null, "lon": 146.359804, "lat": -38.60357, "request": {"type": "GET", "url": "https://gfood-api.azurewebsites.net/markets/5eb7cb4a380e65004468f508"}}}, {"type": "Feature", "geometry": {"type": "Point", "coordinates": [145.35693700000002, -38.204448]}, "properties": {"_id": "5eb7cb4a380e65004468f509", "name": "Tooradin Sunday Market", "address": "The Island", "suburb": "Tooradin", "postcode": 3980, "state": "VIC", "business_category": "Market", "lga": null, "region": null, "lon": 145.35693700000002, "lat": -38.204448, "request": {"type": "GET", "url": "https://gfood-api.azurewebsites.net/markets/5eb7cb4a380e65004468f509"}}}, {"type": "Feature", "geometry": {"type": "Point", "coordinates": [144.827203, -38.396077000000005]}, "properties": {"_id": "5eb7cb4b380e65004468f50a", "name": "Tootgarook Community Market", "address": "Tootgarook Primary School", "suburb": "Tootgarook", "postcode": 3941, "state": "VIC", "business_category": "Market", "lga": "Mornington Peninsula", "region": "Southern Metro", "lon": 144.827203, "lat": -38.396077000000005, "request": {"type": "GET", "url": "https://gfood-api.azurewebsites.net/markets/5eb7cb4b380e65004468f50a"}}}, {"type": "Feature", "geometry": {"type": "Point", "coordinates": [144.299978, -38.307545000000005]}, "properties": {"_id": "5eb7cb4b380e65004468f50b", "name": "Torquay Primary School Market", "address": "Torquay Primary School", "suburb": "Torquay", "postcode": 3228, "state": "VIC", "business_category": "Market", "lga": "Surf Coast", "region": "Barwon S/W", "lon": 144.299978, "lat": -38.307545000000005, "request": {"type": "GET", "url": "https://gfood-api.azurewebsites.net/markets/5eb7cb4b380e65004468f50b"}}}, {"type": "Feature", "geometry": {"type": "Point", "coordinates": [145.161649, -37.784786]}, "properties": {"_id": "5eb7cb4c380e65004468f50c", "name": "Tunstall Square Rotary Market", "address": "Tunstall Square", "suburb": "Doncaster East", "postcode": 3109, "state": "VIC", "business_category": "Market", "lga": "Manningham", "region": "Eastern Metro", "lon": 145.161649, "lat": -37.784786, "request": {"type": "GET", "url": "https://gfood-api.azurewebsites.net/markets/5eb7cb4c380e65004468f50c"}}}, {"type": "Feature", "geometry": {"type": "Point", "coordinates": [143.230699, -36.688551000000004]}, "properties": {"_id": "5eb7cb4c380e65004468f50d", "name": "Uncle Bob's Country Market", "address": "Rear of town hall", "suburb": "St Arnaud", "postcode": 3478, "state": "VIC", "business_category": "Market", "lga": "Northern Grampians", "region": "Grampians", "lon": 143.230699, "lat": -36.688551000000004, "request": {"type": "GET", "url": "https://gfood-api.azurewebsites.net/markets/5eb7cb4c380e65004468f50d"}}}, {"type": "Feature", "geometry": {"type": "Point", "coordinates": [142.482889, -38.378840000000004]}, "properties": {"_id": "5eb7cb4d380e65004468f50e", "name": "Undercover Weekly Market", "address": "Koroit Street", "suburb": "Warrnambool", "postcode": 3280, "state": "VIC", "business_category": "Market", "lga": "Warrnambool", "region": "Barwon S/W", "lon": 142.482889, "lat": -38.378840000000004, "request": {"type": "GET", "url": "https://gfood-api.azurewebsites.net/markets/5eb7cb4d380e65004468f50e"}}}, {"type": "Feature", "geometry": {"type": "Point", "coordinates": [145.786343, -37.867809]}, "properties": {"_id": "5eb7cb4d380e65004468f50f", "name": "Upper Yarra Community Market", "address": "Yarra Junction Football Oval carpark", "suburb": "Yarra Junction", "postcode": 3797, "state": "VIC", "business_category": "Market", "lga": null, "region": null, "lon": 145.786343, "lat": -37.867809, "request": {"type": "GET", "url": "https://gfood-api.azurewebsites.net/markets/5eb7cb4d380e65004468f50f"}}}, {"type": "Feature", "geometry": {"type": "Point", "coordinates": [145.955341, -38.597018]}, "properties": {"_id": "5eb7cb4e380e65004468f510", "name": "Venus Bay Twilight Markets", "address": "Community Centre", "suburb": "Venus Bay", "postcode": 3956, "state": "VIC", "business_category": "Market", "lga": "South Gippsland", "region": "Gippsland", "lon": 145.955341, "lat": -38.597018, "request": {"type": "GET", "url": "https://gfood-api.azurewebsites.net/markets/5eb7cb4e380e65004468f510"}}}, {"type": "Feature", "geometry": {"type": "Point", "coordinates": [144.9520744, -37.82528675]}, "properties": {"_id": "5eb7cb4e380e65004468f511", "name": "Victorian Arts Centre Market", "address": "St Kilda Road and Southgate", "suburb": "Southbank", "postcode": 3006, "state": "VIC", "business_category": "Market", "lga": "Port Phillip,Melbourne", "region": "North and West Metropolitan Region,Southern Metro", "lon": 144.9520744, "lat": -37.82528675, "request": {"type": "GET", "url": "https://gfood-api.azurewebsites.net/markets/5eb7cb4e380e65004468f511"}}}, {"type": "Feature", "geometry": {"type": "Point", "coordinates": [145.708668, -36.625333000000005]}, "properties": {"_id": "5eb7cb4f380e65004468f512", "name": "Violet Town Honeysuckle Community Market", "address": "Tulip Street (Melway ref. 610 T2)", "suburb": "Violet Town", "postcode": 3669, "state": "VIC", "business_category": "Market", "lga": "Strathbogie", "region": "Hume", "lon": 145.708668, "lat": -36.625333000000005, "request": {"type": "GET", "url": "https://gfood-api.azurewebsites.net/markets/5eb7cb4f380e65004468f512"}}}, {"type": "Feature", "geometry": {"type": "Point", "coordinates": [144.956641, -37.41233]}, "properties": {"_id": "5eb7cb4f380e65004468f513", "name": "Wallan Old Time Market", "address": "Hadfield Park", "suburb": "Wallan", "postcode": 3756, "state": "VIC", "business_category": "Market", "lga": "Whittlesea (C); Macedon Ranges (S); Mitchell (S)", "region": "North and West Metropolitan Region; Loddon-Mallee; Hume", "lon": 144.956641, "lat": -37.41233, "request": {"type": "GET", "url": "https://gfood-api.azurewebsites.net/markets/5eb7cb4f380e65004468f513"}}}, {"type": "Feature", "geometry": {"type": "Point", "coordinates": [146.33056399999998, -36.358017]}, "properties": {"_id": "5eb7cb50380e65004468f514", "name": "Wangaratta Trash and Treasure Market", "address": "Wareena Park (Melway ref. 622 C7)", "suburb": "Wangaratta", "postcode": 3677, "state": "VIC", "business_category": "Market", "lga": "Wangaratta Rural", "region": "Hume", "lon": 146.33056399999998, "lat": -36.358017, "request": {"type": "GET", "url": "https://gfood-api.azurewebsites.net/markets/5eb7cb50380e65004468f514"}}}, {"type": "Feature", "geometry": {"type": "Point", "coordinates": [145.22169499999998, -37.864951]}, "properties": {"_id": "5eb7cb50380e65004468f515", "name": "Wantirna Trash & Treasure Market", "address": "Cnr Boronia Road & Mountain Highway", "suburb": "Wantirna", "postcode": 3152, "state": "VIC", "business_category": "Market", "lga": "Knox", "region": "Eastern Metro", "lon": 145.22169499999998, "lat": -37.864951, "request": {"type": "GET", "url": "https://gfood-api.azurewebsites.net/markets/5eb7cb50380e65004468f515"}}}, {"type": "Feature", "geometry": {"type": "Point", "coordinates": [145.818512, -37.727565999999996]}, "properties": {"_id": "5eb7cb51380e65004468f516", "name": "Warburton River Market", "address": "Thomas Avenue (at rear of shops)", "suburb": "Warburton", "postcode": 3799, "state": "VIC", "business_category": "Market", "lga": "Yarra Ranges", "region": "Eastern Metro", "lon": 145.818512, "lat": -37.727565999999996, "request": {"type": "GET", "url": "https://gfood-api.azurewebsites.net/markets/5eb7cb51380e65004468f516"}}}, {"type": "Feature", "geometry": {"type": "Point", "coordinates": [145.204689, -37.752123]}, "properties": {"_id": "5eb7cb51380e65004468f517", "name": "Warrandyte Community Market", "address": "Stiggants Reserve", "suburb": "Warrandyte", "postcode": 3113, "state": "VIC", "business_category": "Market", "lga": "Nillumbik , Manningham", "region": "Eastern Metro", "lon": 145.204689, "lat": -37.752123, "request": {"type": "GET", "url": "https://gfood-api.azurewebsites.net/markets/5eb7cb51380e65004468f517"}}}, {"type": "Feature", "geometry": {"type": "Point", "coordinates": [142.482889, -38.378840000000004]}, "properties": {"_id": "5eb7cb51380e65004468f518", "name": "Warrnambool Hillside Market", "address": "Flagstaff Hill", "suburb": "Warrnambool", "postcode": 3280, "state": "VIC", "business_category": "Market", "lga": "Warrnambool (C)", "region": "Barwon South Western Region", "lon": 142.482889, "lat": -38.378840000000004, "request": {"type": "GET", "url": "https://gfood-api.azurewebsites.net/markets/5eb7cb51380e65004468f518"}}}, {"type": "Feature", "geometry": {"type": "Point", "coordinates": [142.482889, -38.378840000000004]}, "properties": {"_id": "5eb7cb52380e65004468f519", "name": "Warrnambool Undercover Market", "address": "Cattle Pavilion, Showgrounds Reserve", "suburb": "Warrnambool", "postcode": 3280, "state": "VIC", "business_category": "Market", "lga": "Warrnambool", "region": "Barwon S/W", "lon": 142.482889, "lat": -38.378840000000004, "request": {"type": "GET", "url": "https://gfood-api.azurewebsites.net/markets/5eb7cb52380e65004468f519"}}}, {"type": "Feature", "geometry": {"type": "Point", "coordinates": [141.940832, -36.881534]}, "properties": {"_id": "5eb7cb52380e65004468f51a", "name": "Wartook Market", "address": "Picnic Area, Wartook Pottery", "suburb": "Wartook", "postcode": 3401, "state": "VIC", "business_category": "Market", "lga": null, "region": null, "lon": 141.940832, "lat": -36.881534, "request": {"type": "GET", "url": "https://gfood-api.azurewebsites.net/markets/5eb7cb52380e65004468f51a"}}}, {"type": "Feature", "geometry": {"type": "Point", "coordinates": [144.948039, -37.814719000000004]}, "properties": {"_id": "5eb7cb53380e65004468f51b", "name": "Waterfront City Market", "address": "Waterfront City Plaza", "suburb": "Docklands", "postcode": 3008, "state": "VIC", "business_category": "Market", "lga": null, "region": null, "lon": 144.948039, "lat": -37.814719000000004, "request": {"type": "GET", "url": "https://gfood-api.azurewebsites.net/markets/5eb7cb53380e65004468f51b"}}}, {"type": "Feature", "geometry": {"type": "Point", "coordinates": [143.58621499999998, -36.474937]}, "properties": {"_id": "5eb7cb53380e65004468f51c", "name": "Wedderburn Market", "address": "Old Market Square", "suburb": "Wedderburn", "postcode": 3518, "state": "VIC", "business_category": "Market", "lga": "Loddon (S)", "region": "Loddon-Mallee Region", "lon": 143.58621499999998, "lat": -36.474937, "request": {"type": "GET", "url": "https://gfood-api.azurewebsites.net/markets/5eb7cb53380e65004468f51c"}}}, {"type": "Feature", "geometry": {"type": "Point", "coordinates": [144.64209, -37.91624]}, "properties": {"_id": "5eb7cb54380e65004468f51d", "name": "Werribee Racecourse Market", "address": "Werribee Racecourse", "suburb": "Werribee", "postcode": 3030, "state": "VIC", "business_category": "Market", "lga": "Wyndham (C); Melton (S); Brimbank (C)", "region": "North and West Metropolitan Region", "lon": 144.64209, "lat": -37.91624, "request": {"type": "GET", "url": "https://gfood-api.azurewebsites.net/markets/5eb7cb54380e65004468f51d"}}}, {"type": "Feature", "geometry": {"type": "Point", "coordinates": [145.182221, -37.469784000000004]}, "properties": {"_id": "5eb7cb54380e65004468f51e", "name": "Whittlesea Market", "address": "Whittlesea Showgrounds", "suburb": "Whittlesea", "postcode": 3757, "state": "VIC", "business_category": "Market", "lga": "Whittlesea ; Nillumbik", "region": "North and West Metropolitan Region", "lon": 145.182221, "lat": -37.469784000000004, "request": {"type": "GET", "url": "https://gfood-api.azurewebsites.net/markets/5eb7cb54380e65004468f51e"}}}, {"type": "Feature", "geometry": {"type": "Point", "coordinates": [144.888461, -37.863743]}, "properties": {"_id": "5eb7cb55380e65004468f51f", "name": "Williamstown Craft Market", "address": "Commonwealth Reserve", "suburb": "Williamstown", "postcode": 3016, "state": "VIC", "business_category": "Market", "lga": "Hobsons Bay", "region": "North and West Metropolitan Region", "lon": 144.888461, "lat": -37.863743, "request": {"type": "GET", "url": "https://gfood-api.azurewebsites.net/markets/5eb7cb55380e65004468f51f"}}}, {"type": "Feature", "geometry": {"type": "Point", "coordinates": [144.6698898, -37.69608887]}, "properties": {"_id": "5eb7cb56380e65004468f520", "name": "Windmill Gardens Craft Market", "address": "Windmill Gardens, Cnr Leakes Road & Keilor Melton Highway", "suburb": "Rockbank", "postcode": 3335, "state": "VIC", "business_category": "Market", "lga": "Melton", "region": "North and West Metropolitan Region", "lon": 144.6698898, "lat": -37.69608887, "request": {"type": "GET", "url": "https://gfood-api.azurewebsites.net/markets/5eb7cb56380e65004468f520"}}}, {"type": "Feature", "geometry": {"type": "Point", "coordinates": [146.864361, -36.135717]}, "properties": {"_id": "5eb7cb56380e65004468f521", "name": "Wodonga Market", "address": "Woodland Grove (near the water tower)", "suburb": "Wodonga", "postcode": 3690, "state": "VIC", "business_category": "Market", "lga": null, "region": null, "lon": 146.864361, "lat": -36.135717, "request": {"type": "GET", "url": "https://gfood-api.azurewebsites.net/markets/5eb7cb56380e65004468f521"}}}, {"type": "Feature", "geometry": {"type": "Point", "coordinates": [145.630713, -38.578071]}, "properties": {"_id": "5eb7cb57380e65004468f522", "name": "Wonthaggi Rotary Market", "address": "Apex Park", "suburb": "Wonthaggi", "postcode": 3995, "state": "VIC", "business_category": "Market", "lga": "Bass Coast", "region": "Gippsland", "lon": 145.630713, "lat": -38.578071, "request": {"type": "GET", "url": "https://gfood-api.azurewebsites.net/markets/5eb7cb57380e65004468f522"}}}, {"type": "Feature", "geometry": {"type": "Point", "coordinates": [144.548846, -37.330661]}, "properties": {"_id": "5eb7cb57380e65004468f523", "name": "Woodend Village Market", "address": "High Street", "suburb": "Woodend", "postcode": 3442, "state": "VIC", "business_category": "Market", "lga": "Macedon Ranges", "region": "Loddon-Mallee", "lon": 144.548846, "lat": -37.330661, "request": {"type": "GET", "url": "https://gfood-api.azurewebsites.net/markets/5eb7cb57380e65004468f523"}}}, {"type": "Feature", "geometry": {"type": "Point", "coordinates": [145.53266599999998, -37.814506]}, "properties": {"_id": "5eb7cb58380e65004468f524", "name": "Woori Yallock Primary School Market", "address": "Woori Yallock Primary School", "suburb": "Woori Yallock", "postcode": 3139, "state": "VIC", "business_category": "Market", "lga": "Yarra Ranges", "region": "Eastern Metro", "lon": 145.53266599999998, "lat": -37.814506, "request": {"type": "GET", "url": "https://gfood-api.azurewebsites.net/markets/5eb7cb58380e65004468f524"}}}, {"type": "Feature", "geometry": {"type": "Point", "coordinates": [145.513804, -37.606088]}, "properties": {"_id": "5eb7cb58380e65004468f525", "name": "Yarra Glen Market", "address": "Healesville Racecourse", "suburb": "Healesville", "postcode": 3777, "state": "VIC", "business_category": "Market", "lga": "Yarra Ranges (S)", "region": "Eastern Metropolitan Region", "lon": 145.513804, "lat": -37.606088, "request": {"type": "GET", "url": "https://gfood-api.azurewebsites.net/markets/5eb7cb58380e65004468f525"}}}, {"type": "Feature", "geometry": {"type": "Point", "coordinates": [145.786343, -37.867809]}, "properties": {"_id": "5eb7cb59380e65004468f526", "name": "Yarra Junction Football Club Market", "address": "Main Road carpark", "suburb": "Yarra Junction", "postcode": 3797, "state": "VIC", "business_category": "Market", "lga": null, "region": null, "lon": 145.786343, "lat": -37.867809, "request": {"type": "GET", "url": "https://gfood-api.azurewebsites.net/markets/5eb7cb59380e65004468f526"}}}, {"type": "Feature", "geometry": {"type": "Point", "coordinates": [146.815723, -38.631941999999995]}, "properties": {"_id": "5eb7cb59380e65004468f527", "name": "Yarram Market", "address": "Guide and Scout Hall", "suburb": "Yarram", "postcode": 3971, "state": "VIC", "business_category": "Market", "lga": null, "region": null, "lon": 146.815723, "lat": -38.631941999999995, "request": {"type": "GET", "url": "https://gfood-api.azurewebsites.net/markets/5eb7cb59380e65004468f527"}}}, {"type": "Feature", "geometry": {"type": "Point", "coordinates": [145.97475500000002, -36.051782]}, "properties": {"_id": "5eb7cb5a380e65004468f528", "name": "Yarrawonga Rotary Market", "address": "Yarrawonga Showgrounds", "suburb": "Yarrawonga", "postcode": 3730, "state": "VIC", "business_category": "Market", "lga": null, "region": null, "lon": 145.97475500000002, "lat": -36.051782, "request": {"type": "GET", "url": "https://gfood-api.azurewebsites.net/markets/5eb7cb5a380e65004468f528"}}}, {"type": "Feature", "geometry": {"type": "Point", "coordinates": [145.435776, -37.286611]}, "properties": {"_id": "5eb7cb5a380e65004468f529", "name": "Yea Community Craft Market", "address": "Plantation on High Street", "suburb": "Yea", "postcode": 3717, "state": "VIC", "business_category": "Market", "lga": null, "region": null, "lon": 145.435776, "lat": -37.286611, "request": {"type": "GET", "url": "https://gfood-api.azurewebsites.net/markets/5eb7cb5a380e65004468f529"}}}]}